,이름,상호명,지점명,상권업종대분류명,상권업종중분류명,시도명,시군구명,행정동명,법정동명,지번주소,도로명,도로명주소,구우편번호,신우편번호,경도,위도
0,손가네빈대떡 ,손가네빈대떡,,음식,한식,서울특별시,서대문구,홍은2동,홍은동,서울특별시 서대문구 홍은동 409-51,서울특별시 서대문구 증가로10길,서울특별시 서대문구 증가로10길 63,120100,3662.0,126.925257189346,37.5796796954176
1,ZINO본점 본점,ZINO본점,본점,음식,양식,서울특별시,서대문구,신촌동,대신동,서울특별시 서대문구 대신동 84-1,서울특별시 서대문구 연대동문길,서울특별시 서대문구 연대동문길 45,120160,3721.0,126.944391047112,37.5644085632472
2,플라토어학학원 ,플라토어학학원,,음식,닭/오리요리,서울특별시,서대문구,홍은2동,홍은동,서울특별시 서대문구 홍은동 426,서울특별시 서대문구 연희로,서울특별시 서대문구 연희로 286,120100,3653.0,126.936435522898,37.582583166292
3,에브리키친 ,에브리키친,,음식,한식,서울특별시,서대문구,홍제1동,홍제동,서울특별시 서대문구 홍제동 82,서울특별시 서대문구 통일로25길,서울특별시 서대문구 통일로25길 30,120782,3730.0,126.94721576252,37.5832654824073
4,참숯돼지천국 ,참숯돼지천국,,음식,한식,서울특별시,서대문구,홍은1동,홍은동,서울특별시 서대문구 홍은동 9-43,서울특별시 서대문구 홍은중앙로,서울특별시 서대문구 홍은중앙로 118,120100,3605.0,126.949231520128,37.6009527502764
5,룰루랄라 ,룰루랄라,,음식,유흥주점,서울특별시,서대문구,북가좌2동,북가좌동,서울특별시 서대문구 북가좌동 343-11,서울특별시 서대문구 증가로,서울특별시 서대문구 증가로 261,120130,3678.0,126.910988113755,37.5838378367067
6,행복한집 ,행복한집,,음식,분식,서울특별시,서대문구,충현동,북아현동,서울특별시 서대문구 북아현동 3-159,서울특별시 서대문구 북아현로14길,서울특별시 서대문구 북아현로14길 6,120818,3750.0,126.955883549154,37.5625374861787
7,풍전에프앤비서울간호대식당 ,풍전에프앤비서울간호대식당,,음식,기타음식업,서울특별시,서대문구,홍제3동,홍제동,서울특별시 서대문구 홍제동 287-89,서울특별시 서대문구 간호대로,서울특별시 서대문구 간호대로 38,120742,3617.0,126.94773912769,37.5975605745828
8,가이오국수 ,가이오국수,,음식,분식,서울특별시,서대문구,홍제1동,홍제동,서울특별시 서대문구 홍제동 315-21,서울특별시 서대문구 통일로37길,서울특별시 서대문구 통일로37길 15,120090,3646.0,126.944291071767,37.5875282924699
9,전생에밀가루 ,전생에밀가루,,음식,한식,서울특별시,서대문구,충현동,충정로2가,서울특별시 서대문구 충정로2가 35,서울특별시 서대문구 충정로11길,서울특별시 서대문구 충정로11길 20,120012,3735.0,126.96524783861,37.5655573258124
10,울랄라포장마차 ,울랄라포장마차,,음식,유흥주점,서울특별시,서대문구,남가좌2동,남가좌동,서울특별시 서대문구 남가좌동 343-8,서울특별시 서대문구 거북골로,서울특별시 서대문구 거북골로 37-4,120120,3665.0,126.92368094351,37.5790706499001
11,감자바우곤드레밥 ,감자바우곤드레밥,,음식,한식,서울특별시,서대문구,남가좌1동,남가좌동,서울특별시 서대문구 남가좌동 291-58,서울특별시 서대문구 수색로2길,서울특별시 서대문구 수색로2길 7,120120,3712.0,126.915967275966,37.5691787742041
12,코피티암 이대점,코피티암,이대점,음식,양식,서울특별시,서대문구,신촌동,대현동,서울특별시 서대문구 대현동 54-24,서울특별시 서대문구 이화여대길,서울특별시 서대문구 이화여대길 12,120808,3767.0,126.945983366914,37.5574397310682
13,기꾸초밥 ,기꾸초밥,,음식,일식/수산물,서울특별시,서대문구,신촌동,창천동,서울특별시 서대문구 창천동 72-23,서울특별시 서대문구 연세로5다길,서울특별시 서대문구 연세로5다길 35,120834,3787.0,126.933530844006,37.5568233226361
14,향꽃민속주점 꽃민속주점,향꽃민속주점,꽃민속주점,음식,유흥주점,서울특별시,서대문구,신촌동,창천동,서울특별시 서대문구 창천동 53-21,서울특별시 서대문구 연세로7안길,서울특별시 서대문구 연세로7안길 39,120834,3787.0,126.934530866859,37.5581298484677
15,신촌형제갈비 ,신촌형제갈비,,음식,한식,서울특별시,서대문구,신촌동,창천동,서울특별시 서대문구 창천동 31-26,서울특별시 서대문구 명물1길,서울특별시 서대문구 명물1길 2,120834,3776.0,126.937307967352,37.5578395139952
16,맛깔참죽 명지전문대점,맛깔참죽,명지전문대점,음식,별식/퓨전요리,서울특별시,서대문구,홍은2동,홍은동,서울특별시 서대문구 홍은동 355,서울특별시 서대문구 가좌로,서울특별시 서대문구 가좌로 123,120100,3675.0,126.925041662566,37.5828583874523
17,최고집바지락생칼국수 ,최고집바지락생칼국수,,음식,분식,서울특별시,서대문구,북가좌2동,북가좌동,서울특별시 서대문구 북가좌동 307-5,서울특별시 서대문구 응암로,서울특별시 서대문구 응암로 59,120130,3681.0,126.910000161708,37.5786027195146
18,연희정식당 ,연희정식당,,음식,한식,서울특별시,서대문구,연희동,연희동,서울특별시 서대문구 연희동 132-43,서울특별시 서대문구 연희맛로,서울특별시 서대문구 연희맛로 25,120825,3703.0,126.930198999485,37.5674164236288
19,두리휴게음식점 ,두리휴게음식점,,음식,한식,서울특별시,서대문구,충현동,충정로3가,서울특별시 서대문구 충정로3가 222,서울특별시 서대문구 충정로,서울특별시 서대문구 충정로 50,120708,3740.0,126.965103393043,37.5629069996322
20,맥도날드명지대점 명지대점,맥도날드명지대점,명지대점,음식,패스트푸드,서울특별시,서대문구,남가좌2동,남가좌동,서울특별시 서대문구 남가좌동 324-3,서울특별시 서대문구 거북골로,서울특별시 서대문구 거북골로 25,120120,3665.0,126.924721519364,37.5799271069096
21,추억의포차 ,추억의포차,,음식,유흥주점,서울특별시,서대문구,북가좌2동,북가좌동,서울특별시 서대문구 북가좌동 300-1,서울특별시 서대문구 응암로,서울특별시 서대문구 응암로 80-4,120130,3683.0,126.911703728139,37.57978978308
22,BBQ치킨신촌역점 신촌역점,BBQ치킨신촌역점,신촌역점,음식,닭/오리요리,서울특별시,서대문구,신촌동,대신동,서울특별시 서대문구 대신동 125-17,서울특별시 서대문구 봉원사길,서울특별시 서대문구 봉원사길 8,120160,3721.0,126.946696284315,37.567096229216
23,송마칡냉면 ,송마칡냉면,,음식,한식,서울특별시,서대문구,홍은1동,홍은동,서울특별시 서대문구 홍은동 42-1,서울특별시 서대문구 세검정로1길,서울특별시 서대문구 세검정로1길 65,120101,3616.0,126.944930170603,37.5935889650055
24,지지 ,지지,,음식,유흥주점,서울특별시,서대문구,신촌동,창천동,서울특별시 서대문구 창천동 13-24,서울특별시 서대문구 연세로4길,서울특별시 서대문구 연세로4길 25,120833,3777.0,126.938026039494,37.5574855592638
25,초가집삼겹살좋아 ,초가집삼겹살좋아,,음식,한식,서울특별시,서대문구,연희동,연희동,서울특별시 서대문구 연희동 187-59,서울특별시 서대문구 연희로,서울특별시 서대문구 연희로 90-1,120830,3725.0,126.930523912831,37.5660678107528
26,전통남원추어탕 ,전통남원추어탕,,음식,한식,서울특별시,서대문구,북가좌2동,북가좌동,서울특별시 서대문구 북가좌동 292-11,서울특별시 서대문구 응암로,서울특별시 서대문구 응암로 104,120130,3682.0,126.913000007894,37.5817389514143
27,연희동예비군3동대 ,연희동예비군3동대,,음식,한식,서울특별시,서대문구,연희동,연희동,서울특별시 서대문구 연희동 77-9,서울특별시 서대문구 연희로,서울특별시 서대문구 연희로 189,120827,3697.0,126.935200877283,37.5738770327582
28,강수사 ,강수사,,음식,일식/수산물,서울특별시,서대문구,연희동,연희동,서울특별시 서대문구 연희동 81-11,서울특별시 서대문구 연희로,서울특별시 서대문구 연희로 161,120824,3699.0,126.934496192798,37.5716901640792
29,느티나무 ,느티나무,,음식,한식,서울특별시,서대문구,홍은2동,홍은동,서울특별시 서대문구 홍은동 415-99,서울특별시 서대문구 모래내로,서울특별시 서대문구 모래내로 275,120100,3664.0,126.928552222783,37.5772768532875
30,가이스앤돌스 ,가이스앤돌스,,음식,양식,서울특별시,서대문구,신촌동,대현동,서울특별시 서대문구 대현동 27-38,서울특별시 서대문구 이화여대7길,서울특별시 서대문구 이화여대7길 40,120808,3766.0,126.943374401968,37.5586508357683
31,연세대고를샘스낵 ,연세대고를샘스낵,,음식,분식,서울특별시,서대문구,신촌동,신촌동,서울특별시 서대문구 신촌동 134,서울특별시 서대문구 연세로,서울특별시 서대문구 연세로 50,120749,3722.0,126.942916817516,37.5638006863037
32,간이역 노가리호프,간이역,노가리호프,음식,한식,서울특별시,서대문구,북가좌2동,북가좌동,서울특별시 서대문구 북가좌동 279-12,서울특별시 서대문구 응암로,서울특별시 서대문구 응암로 116,120812,3667.0,126.913699573047,37.5826824672552
33,종로김밥 신촌역점,종로김밥,신촌역점,음식,분식,서울특별시,서대문구,신촌동,창천동,서울특별시 서대문구 창천동 20-26,서울특별시 서대문구 신촌로,서울특별시 서대문구 신촌로 127,120833,3780.0,126.939976134226,37.556448867196
34,봄날 ,봄날,,음식,한식,서울특별시,서대문구,남가좌2동,남가좌동,서울특별시 서대문구 남가좌동 2-9,서울특별시 서대문구 명지대길,서울특별시 서대문구 명지대길 97,120800,3672.0,126.923073637743,37.5842911142647
35,명동분식 ,명동분식,,음식,분식,서울특별시,서대문구,홍은1동,홍은동,서울특별시 서대문구 홍은동 48-313,서울특별시 서대문구 세검정로1길,서울특별시 서대문구 세검정로1길 42,120100,3616.0,126.943817929335,37.5929663133023
36,보드람치킨 홍은점,보드람치킨,홍은점,음식,닭/오리요리,서울특별시,서대문구,홍은1동,홍은동,서울특별시 서대문구 홍은동 453-2,서울특별시 서대문구 세검정로1길,서울특별시 서대문구 세검정로1길 35,120761,3615.0,126.943899084582,37.5936338053595
37,거북이집한정식 ,거북이집한정식,,음식,한식,서울특별시,서대문구,연희동,연희동,서울특별시 서대문구 연희동 188-11,서울특별시 서대문구 연희맛로,서울특별시 서대문구 연희맛로 12-1,120825,3708.0,126.929389275955,37.5662557547781
38,하루돈제주흙돼지 ,하루돈제주흙돼지,,음식,한식,서울특별시,서대문구,충현동,미근동,서울특별시 서대문구 미근동 168,서울특별시 서대문구 통일로,서울특별시 서대문구 통일로 109,120020,3738.0,126.96731929184,37.5647374957535
39,홍제동닭내장 ,홍제동닭내장,,음식,닭/오리요리,서울특별시,서대문구,홍제3동,홍제동,서울특별시 서대문구 홍제동 298-9,서울특별시 서대문구 인왕시장길,서울특별시 서대문구 인왕시장길 16,120090,3628.0,126.942837278833,37.5910473393645
40,초당쌈밥 ,초당쌈밥,,음식,한식,서울특별시,서대문구,신촌동,창천동,서울특별시 서대문구 창천동 2-77,서울특별시 서대문구 연세로12길,서울특별시 서대문구 연세로12길 37-4,120833,3776.0,126.939087153809,37.5592791578157
41,소푸리콩나물국밥 ,소푸리콩나물국밥,,음식,한식,서울특별시,서대문구,연희동,연희동,서울특별시 서대문구 연희동 431-3,서울특별시 서대문구 성산로,서울특별시 서대문구 성산로 331,120831,3707.0,126.927046186909,37.5662525033057
42,맘모스고기부페 홍제점,맘모스고기부페,홍제점,음식,부페,서울특별시,서대문구,홍제3동,홍제동,서울특별시 서대문구 홍제동 274-9,서울특별시 서대문구 세검정로,서울특별시 서대문구 세검정로 62,120090,3622.0,126.947823174449,37.5932003149104
43,애숙이김밥 ,애숙이김밥,,음식,분식,서울특별시,서대문구,천연동,영천동,서울특별시 서대문구 영천동 69-146,서울특별시 서대문구 독립문로1길,서울특별시 서대문구 독립문로1길 7,120070,3734.0,126.959967131716,37.5708630995234
44,삼삼치킨 북가좌점,삼삼치킨,북가좌점,음식,닭/오리요리,서울특별시,서대문구,북가좌2동,북가좌동,서울특별시 서대문구 북가좌동 294-16,서울특별시 서대문구 응암로,서울특별시 서대문구 응암로 90,120812,3682.0,126.912289664334,37.5807592906957
45,감성매인 ,감성매인,,음식,한식,서울특별시,서대문구,연희동,연희동,서울특별시 서대문구 연희동 191-4,서울특별시 서대문구 연희로11가길,서울특별시 서대문구 연희로11가길 56,120825,3707.0,126.927181098664,37.5663168020302
46,핑크버터 홍은점,핑크버터,홍은점,음식,한식,서울특별시,서대문구,홍은1동,홍은동,서울특별시 서대문구 홍은동 43-2,서울특별시 서대문구 세검정로1길,서울특별시 서대문구 세검정로1길 81,120101,3616.0,126.945569689804,37.5940091562478
47,원 ,원,,음식,유흥주점,서울특별시,서대문구,북가좌2동,북가좌동,서울특별시 서대문구 북가좌동 329-7,서울특별시 서대문구 증가로,서울특별시 서대문구 증가로 245,120130,3678.0,126.912452619453,37.5827881192613
48,로라 ,로라,,음식,양식,서울특별시,서대문구,북가좌2동,북가좌동,서울특별시 서대문구 북가좌동 341-24,서울특별시 서대문구 증가로32길,서울특별시 서대문구 증가로32길 23-8,120815,3676.0,126.912070873752,37.5849020310622
49,만나식당 ,만나식당,,음식,한식,서울특별시,서대문구,충현동,충정로3가,서울특별시 서대문구 충정로3가 275,서울특별시 서대문구 충정로4길,서울특별시 서대문구 충정로4길 14,120840,3742.0,126.963944983588,37.5607343407679
50,철길옆이야기 ,철길옆이야기,,음식,한식,서울특별시,서대문구,충현동,미근동,서울특별시 서대문구 미근동 215,서울특별시 서대문구 충정로6길,서울특별시 서대문구 충정로6길 59,120020,3739.0,126.968518717758,37.5631261073731
51,무바 ,무바,,음식,유흥주점,서울특별시,서대문구,홍제3동,홍제동,서울특별시 서대문구 홍제동 266-60,서울특별시 서대문구 세검정로,서울특별시 서대문구 세검정로 46,120090,3624.0,126.946287788917,37.5920693336109
52,단비 ,단비,,음식,유흥주점,서울특별시,서대문구,남가좌1동,남가좌동,서울특별시 서대문구 남가좌동 295-5,서울특별시 서대문구 수색로,서울특별시 서대문구 수색로 42,120120,3712.0,126.914239754489,37.5704333591557
53,고봉민김밥인 서대문가재울뉴타운점,고봉민김밥인,서대문가재울뉴타운점,음식,분식,서울특별시,서대문구,남가좌1동,남가좌동,서울특별시 서대문구 남가좌동 385,서울특별시 서대문구 가재울미래로,서울특별시 서대문구 가재울미래로 2,120121,3711.0,126.917827900867,37.5743677926814
54,연경 연희점,연경,연희점,음식,중식,서울특별시,서대문구,연희동,연희동,서울특별시 서대문구 연희동 86-15,서울특별시 서대문구 연희로,서울특별시 서대문구 연희로 145,120824,3699.0,126.933606612536,37.570564844968
55,오카이 ,오카이,,음식,일식/수산물,서울특별시,서대문구,북가좌2동,북가좌동,서울특별시 서대문구 북가좌동 300-2,서울특별시 서대문구 응암로,서울특별시 서대문구 응암로 76,120813,3683.0,126.911411244321,37.5796609412573
56,박용석스시 증산점,박용석스시,증산점,음식,일식/수산물,서울특별시,서대문구,북가좌2동,북가좌동,서울특별시 서대문구 북가좌동 330-18,서울특별시 서대문구 증가로,서울특별시 서대문구 증가로 250,120815,3677.0,126.912229534083,37.5833356943802
57,고바우 ,고바우,,음식,한식,서울특별시,서대문구,신촌동,창천동,서울특별시 서대문구 창천동 31-25,서울특별시 서대문구 명물1길,서울특별시 서대문구 명물1길 16,120834,3776.0,126.937325354937,37.5582090967674
58,하이트비어뱅서대문점 서대문점,하이트비어뱅서대문점,서대문점,음식,유흥주점,서울특별시,서대문구,충현동,충정로2가,서울특별시 서대문구 충정로2가 5-6,서울특별시 서대문구 통일로,서울특별시 서대문구 통일로 133-5,120012,3735.0,126.965704778392,37.5660749231299
59,정든곱창 북가좌점,정든곱창,북가좌점,음식,한식,서울특별시,서대문구,북가좌2동,북가좌동,서울특별시 서대문구 북가좌동 300-14,서울특별시 서대문구 응암로,서울특별시 서대문구 응암로 78,120813,3683.0,126.911511025647,37.5798060269393
60,서브웨이 신촌점,서브웨이,신촌점,음식,패스트푸드,서울특별시,서대문구,신촌동,창천동,서울특별시 서대문구 창천동 20-41,서울특별시 서대문구 신촌로,서울특별시 서대문구 신촌로 121,120833,3780.0,126.939277954266,37.5561993158556
61,밥이답이다 세브란스점,밥이답이다,세브란스점,음식,한식,서울특별시,서대문구,신촌동,신촌동,서울특별시 서대문구 신촌동 134,서울특별시 서대문구 연세로,서울특별시 서대문구 연세로 50,120749,3722.0,126.942916817516,37.5638006863037
62,가야가야 ,가야가야,,음식,분식,서울특별시,서대문구,신촌동,대현동,서울특별시 서대문구 대현동 56-21,서울특별시 서대문구 이화여대5길,서울특별시 서대문구 이화여대5길 7-3,120808,3766.0,126.945361722688,37.5581820431845
63,엄마밥상 ,엄마밥상,,음식,한식,서울특별시,서대문구,홍은2동,홍은동,서울특별시 서대문구 홍은동 409-58,서울특별시 서대문구 거북골로,서울특별시 서대문구 거북골로 11,120100,3662.0,126.925943242468,37.5807852032057
64,동대문엽기떡볶이서대문점 서대문점,동대문엽기떡볶이서대문점,서대문점,음식,분식,서울특별시,서대문구,천연동,냉천동,서울특별시 서대문구 냉천동 261-2,서울특별시 서대문구 독립문로14길,서울특별시 서대문구 독립문로14길 3,120050,3746.0,126.963962623063,37.5668165210525
65,멸치국수잘하는집미정국수0410신촌점 신촌점,멸치국수잘하는집미정국수0410신촌점,신촌점,음식,분식,서울특별시,서대문구,신촌동,창천동,서울특별시 서대문구 창천동 33-47,서울특별시 서대문구 연세로7안길,서울특별시 서대문구 연세로7안길 2,120834,3788.0,126.93646048923,37.5577417788392
66,구구 ,구구,,음식,유흥주점,서울특별시,서대문구,북가좌2동,북가좌동,서울특별시 서대문구 북가좌동 309-3,서울특별시 서대문구 응암로,서울특별시 서대문구 응암로 79,120130,3679.0,126.911287549288,37.5803806279844
67,이맛분식 ,이맛분식,,음식,분식,서울특별시,서대문구,연희동,연희동,서울특별시 서대문구 연희동 342-60,서울특별시 서대문구 성산로,서울특별시 서대문구 성산로 378,120830,3727.0,126.930511116301,37.5630041649682
68,치킨마루북가좌서부점 북가좌서부점,치킨마루북가좌서부점,북가좌서부점,음식,닭/오리요리,서울특별시,서대문구,북가좌2동,북가좌동,서울특별시 서대문구 북가좌동 324-50,서울특별시 서대문구 응암로1길,서울특별시 서대문구 응암로1길 18,120130,3678.0,126.91031565152,37.5818133145315
69,룰루랄라종점 ,룰루랄라종점,,음식,한식,서울특별시,서대문구,북가좌2동,북가좌동,서울특별시 서대문구 북가좌동 324-50,서울특별시 서대문구 응암로1길,서울특별시 서대문구 응암로1길 18,120130,3678.0,126.91031565152,37.5818133145315
70,티앤지네트웍스 ,티앤지네트웍스,,음식,분식,서울특별시,서대문구,충현동,합동,서울특별시 서대문구 합동 31-7,서울특별시 서대문구 서소문로,서울특별시 서대문구 서소문로 43-22,120030,3741.0,126.965265621465,37.5609982143005
71,레몬 ,레몬,,음식,분식,서울특별시,서대문구,연희동,연희동,서울특별시 서대문구 연희동 339-4,서울특별시 서대문구 연희로10길,서울특별시 서대문구 연희로10길 78,120830,3726.0,126.933249975292,37.5638218584834
72,김덕후의차돌조 신촌점,김덕후의차돌조,신촌점,음식,한식,서울특별시,서대문구,신촌동,창천동,서울특별시 서대문구 창천동 57-55,서울특별시 서대문구 연세로5가길,서울특별시 서대문구 연세로5가길 20,120834,3789.0,126.935593968379,37.5573915748378
73,나나하치 ,나나하치,,음식,한식,서울특별시,서대문구,연희동,연희동,서울특별시 서대문구 연희동 81-18,서울특별시 서대문구 연희로,서울특별시 서대문구 연희로 153,120824,3699.0,126.934084842091,37.571163848809
74,솔분식 ,솔분식,,음식,분식,서울특별시,서대문구,홍제3동,홍제동,서울특별시 서대문구 홍제동 282-42,서울특별시 서대문구 세검정로,서울특별시 서대문구 세검정로 74-18,120090,3622.0,126.949135453564,37.594095020881
75,꽃마름가좌역점 가좌역점,꽃마름가좌역점,가좌역점,음식,별식/퓨전요리,서울특별시,서대문구,북가좌1동,북가좌동,서울특별시 서대문구 북가좌동 487,서울특별시 서대문구 수색로,서울특별시 서대문구 수색로 56,120130,3709.0,126.912663063674,37.5706531163637
76,레이첼티 ,레이첼티,,음식,한식,서울특별시,서대문구,북아현동,북아현동,서울특별시 서대문구 북아현동 1011,서울특별시 서대문구 북아현로1길,서울특별시 서대문구 북아현로1길 50,120190,3770.0,126.952799500857,37.5596809037352
77,원조국수전문점 ,원조국수전문점,,음식,분식,서울특별시,서대문구,홍제3동,홍제동,서울특별시 서대문구 홍제동 298-9,서울특별시 서대문구 인왕시장길,서울특별시 서대문구 인왕시장길 16,120090,3628.0,126.942837278833,37.5910473393645
78,제이스틸 ,제이스틸,,음식,분식,서울특별시,서대문구,연희동,연희동,서울특별시 서대문구 연희동 739,서울특별시 서대문구 연희로,서울특별시 서대문구 연희로 38-20,120733,3781.0,126.92855476802,37.5620853878364
79,하니앤손스 ,하니앤손스,,음식,한식,서울특별시,서대문구,연희동,연희동,서울특별시 서대문구 연희동 188-89,서울특별시 서대문구 연희맛로,서울특별시 서대문구 연희맛로 12,120825,3708.0,126.929300408152,37.5661378139005
80,제시카키친 이대하늬솔점,제시카키친,이대하늬솔점,음식,양식,서울특별시,서대문구,신촌동,대신동,서울특별시 서대문구 대신동 85,서울특별시 서대문구 성산로,서울특별시 서대문구 성산로 527,120160,3721.0,126.9440718597,37.5637659708989
81,돈불1971 신촌직영점,돈불1971,신촌직영점,음식,한식,서울특별시,서대문구,신촌동,창천동,서울특별시 서대문구 창천동 62-37,서울특별시 서대문구 연세로5다길,서울특별시 서대문구 연세로5다길 36,120834,3787.0,126.933642341118,37.5569414648711
82,허프퍼프 ,허프퍼프,,음식,양식,서울특별시,서대문구,신촌동,창천동,서울특별시 서대문구 창천동 52-155,서울특별시 서대문구 연세로11길,서울특별시 서대문구 연세로11길 20,120834,3788.0,126.935740653596,37.5590147683405
83,프린스치킨 ,프린스치킨,,음식,닭/오리요리,서울특별시,서대문구,연희동,연희동,서울특별시 서대문구 연희동 92-20,서울특별시 서대문구 증가로,서울특별시 서대문구 증가로 16,120824,3698.0,126.93134185414,37.5698235348166
84,도드람포크생고기자연석돌구이 ,도드람포크생고기자연석돌구이,,음식,한식,서울특별시,서대문구,연희동,연희동,서울특별시 서대문구 연희동 721-7,서울특별시 서대문구 가좌로,서울특별시 서대문구 가좌로 29,120827,3696.0,126.932255566528,37.5771842645669
85,한솥연희교차로점 연희교차로점,한솥연희교차로점,연희교차로점,음식,패스트푸드,서울특별시,서대문구,연희동,연희동,서울특별시 서대문구 연희동 187-61,서울특별시 서대문구 연희로,서울특별시 서대문구 연희로 88,120830,3725.0,126.93037922645,37.5658953027135
86,코쿤캅 ,코쿤캅,,음식,유흥주점,서울특별시,서대문구,신촌동,대현동,서울특별시 서대문구 대현동 60-11,서울특별시 서대문구 신촌역로,서울특별시 서대문구 신촌역로 22-5,120808,3766.0,126.942467265119,37.5587688593019
87,통인동커피공방신촌로스팅라이브러리 ,통인동커피공방신촌로스팅라이브러리,,음식,한식,서울특별시,서대문구,신촌동,창천동,서울특별시 서대문구 창천동 30-33,서울특별시 서대문구 신촌로,서울특별시 서대문구 신촌로 83,120706,3789.0,126.935827820491,37.556069154454
88,백암순대 ,백암순대,,음식,별식/퓨전요리,서울특별시,서대문구,연희동,연희동,서울특별시 서대문구 연희동 122-18,서울특별시 서대문구 증가로,서울특별시 서대문구 증가로 13-6,120825,3703.0,126.931031243445,37.5693792142273
89,크라제버거 신촌세브란스점,크라제버거,신촌세브란스점,음식,한식,서울특별시,서대문구,신촌동,신촌동,서울특별시 서대문구 신촌동 134,서울특별시 서대문구 연세로,서울특별시 서대문구 연세로 50,120749,3722.0,126.942916817516,37.5638006863037
90,봉설렁탕 ,봉설렁탕,,음식,한식,서울특별시,서대문구,신촌동,창천동,서울특별시 서대문구 창천동 18-8,서울특별시 서대문구 명물길,서울특별시 서대문구 명물길 2,120833,3777.0,126.937260468389,37.5571993482266
91,문정네집 ,문정네집,,음식,한식,서울특별시,서대문구,홍은1동,홍은동,서울특별시 서대문구 홍은동 9-161,서울특별시 서대문구 포방터길,서울특별시 서대문구 포방터길 48-4,120100,3607.0,126.94924067747,37.5986912355622
92,남도집 ,남도집,,음식,한식,서울특별시,서대문구,신촌동,창천동,서울특별시 서대문구 창천동 29-61,서울특별시 서대문구 연세로2길,서울특별시 서대문구 연세로2길 19,120833,3779.0,126.937977319322,37.5561335611601
93,마포숯불갈비 ,마포숯불갈비,,음식,한식,서울특별시,서대문구,충현동,충정로3가,서울특별시 서대문구 충정로3가 275,서울특별시 서대문구 충정로4길,서울특별시 서대문구 충정로4길 14,120840,3742.0,126.963944983588,37.5607343407679
94,김밥천국연희점 연희점,김밥천국연희점,연희점,음식,분식,서울특별시,서대문구,연희동,연희동,서울특별시 서대문구 연희동 134-18,서울특별시 서대문구 연희로,서울특별시 서대문구 연희로 119,120825,3708.0,126.931949460496,37.5684954979599
95,쭈꾸미앤소스삼겹살 ,쭈꾸미앤소스삼겹살,,음식,한식,서울특별시,서대문구,북가좌2동,북가좌동,서울특별시 서대문구 북가좌동 327-13,서울특별시 서대문구 응암로,서울특별시 서대문구 응암로 103,120130,3678.0,126.912689511443,37.5820694743321
96,김동욱 ,김동욱,,음식,한식,서울특별시,서대문구,신촌동,대신동,서울특별시 서대문구 대신동 84-13,서울특별시 서대문구 연대동문길,서울특별시 서대문구 연대동문길 27-6,120160,3721.0,126.943717067399,37.5640421192181
97,광풍정육식당 ,광풍정육식당,,음식,한식,서울특별시,서대문구,남가좌1동,남가좌동,서울특별시 서대문구 남가좌동 289-43,서울특별시 서대문구 수색로4가길,서울특별시 서대문구 수색로4가길 14-4,120120,3712.0,126.914553275877,37.5706705117305
98,케세이호 ,케세이호,,음식,중식,서울특별시,서대문구,신촌동,대현동,서울특별시 서대문구 대현동 11-1,서울특별시 서대문구 이화여대길,서울특별시 서대문구 이화여대길 52,120750,3760.0,126.950301476769,37.5642810556138
99,또순네 ,또순네,,음식,한식,서울특별시,서대문구,홍은1동,홍은동,서울특별시 서대문구 홍은동 9-358,서울특별시 서대문구 홍은중앙로,서울특별시 서대문구 홍은중앙로 75-3,120100,3604.0,126.946295918912,37.5979171224298
100,필 ,필,,음식,한식,서울특별시,서대문구,남가좌2동,남가좌동,서울특별시 서대문구 남가좌동 328-29,서울특별시 서대문구 증가로,서울특별시 서대문구 증가로 104,120120,3666.0,126.925815517027,37.5762788621475
101,백암토종순대 ,백암토종순대,,음식,별식/퓨전요리,서울특별시,서대문구,충현동,충정로3가,서울특별시 서대문구 충정로3가 281-34,서울특별시 서대문구 충정로2길,서울특별시 서대문구 충정로2길 26,120840,3741.0,126.964593935929,37.560460711095
102,본가생고기 ,본가생고기,,음식,한식,서울특별시,서대문구,북가좌2동,북가좌동,서울특별시 서대문구 북가좌동 294-22,서울특별시 서대문구 증가로25길,서울특별시 서대문구 증가로25길 19,120812,3682.0,126.913201489863,37.5811190929713
103,서서갈비 ,서서갈비,,음식,한식,서울특별시,서대문구,신촌동,창천동,서울특별시 서대문구 창천동 49-5,서울특별시 서대문구 연세로12길,서울특별시 서대문구 연세로12길 8,120834,3776.0,126.937419402073,37.5587595774031
104,연세대청경관 ,연세대청경관,,음식,분식,서울특별시,서대문구,신촌동,창천동,서울특별시 서대문구 창천동 135,서울특별시 서대문구 신촌로7안길,서울특별시 서대문구 신촌로7안길 27,120836,3783.0,126.930855970312,37.5594662063715
105,고기집 ,고기집,,음식,한식,서울특별시,서대문구,남가좌2동,남가좌동,서울특별시 서대문구 남가좌동 340-32,서울특별시 서대문구 증가로,서울특별시 서대문구 증가로 122,120807,3666.0,126.924260378343,37.5773549537304
106,백양양꼬치앤짬뽕 ,백양양꼬치앤짬뽕,,음식,유흥주점,서울특별시,서대문구,신촌동,창천동,서울특별시 서대문구 창천동 57-40,서울특별시 서대문구 연세로5가길,서울특별시 서대문구 연세로5가길 31,120834,3789.0,126.934883837064,37.5571869418131
107,우리황태 ,우리황태,,음식,한식,서울특별시,서대문구,연희동,연희동,서울특별시 서대문구 연희동 169-23,서울특별시 서대문구 홍제천로,서울특별시 서대문구 홍제천로 208,120827,3660.0,126.935744320019,37.5794413304502
108,대국 ,대국,,음식,분식,서울특별시,서대문구,남가좌2동,남가좌동,서울특별시 서대문구 남가좌동 2-9,서울특별시 서대문구 명지대길,서울특별시 서대문구 명지대길 97,120120,3672.0,126.923073637743,37.5842911142647
109,강산애 ,강산애,,음식,한식,서울특별시,서대문구,신촌동,창천동,서울특별시 서대문구 창천동 508-5,서울특별시 서대문구 신촌로1길,서울특별시 서대문구 신촌로1길 10,120836,3785.0,126.928331156405,37.5587314944937
110,명물갈비 ,명물갈비,,음식,한식,서울특별시,서대문구,신촌동,창천동,서울특별시 서대문구 창천동 2-28,서울특별시 서대문구 명물길,서울특별시 서대문구 명물길 43-3,120833,3776.0,126.938471620606,37.5587870636105
111,우리하우스 ,우리하우스,,음식,분식,서울특별시,서대문구,충현동,충정로2가,서울특별시 서대문구 충정로2가 107,서울특별시 서대문구 충정로9길,서울특별시 서대문구 충정로9길 16,120012,3736.0,126.964436462511,37.5644779729911
112,여우골초밥앤참치 ,여우골초밥앤참치,,음식,일식/수산물,서울특별시,서대문구,신촌동,창천동,서울특별시 서대문구 창천동 62-11,서울특별시 서대문구 연세로5다길,서울특별시 서대문구 연세로5다길 10,120834,3789.0,126.934983987592,37.5565120655207
113,봉추찜닭 ,봉추찜닭,,음식,닭/오리요리,서울특별시,서대문구,충현동,충정로3가,서울특별시 서대문구 충정로3가 465,서울특별시 서대문구 서소문로,서울특별시 서대문구 서소문로 27,120013,3741.0,126.964845533717,37.5602736986601
114,장호왕곱창 ,장호왕곱창,,음식,한식,서울특별시,서대문구,충현동,충정로3가,서울특별시 서대문구 충정로3가 465,서울특별시 서대문구 서소문로,서울특별시 서대문구 서소문로 27,120013,3741.0,126.964845533717,37.5602736986601
115,낙원식당 ,낙원식당,,음식,한식,서울특별시,서대문구,북가좌2동,북가좌동,서울특별시 서대문구 북가좌동 335-17,서울특별시 서대문구 응암로,서울특별시 서대문구 응암로 141,120130,3676.0,126.914685846018,37.5849351148659
116,다모토리5 ,다모토리5,,음식,유흥주점,서울특별시,서대문구,신촌동,창천동,서울특별시 서대문구 창천동 57-20,서울특별시 서대문구 연세로7길,서울특별시 서대문구 연세로7길 25,120834,3789.0,126.935343975272,37.557461403934
117,명물아구찜 ,명물아구찜,,음식,일식/수산물,서울특별시,서대문구,충현동,충정로3가,서울특별시 서대문구 충정로3가 281-16,서울특별시 서대문구 충정로2길,서울특별시 서대문구 충정로2길 19,120840,3741.0,126.964453764199,37.5607748461611
118,본우리반상 ,본우리반상,,음식,한식,서울특별시,서대문구,신촌동,신촌동,서울특별시 서대문구 신촌동 134,서울특별시 서대문구 연세로,서울특별시 서대문구 연세로 50,120749,3722.0,126.942916817516,37.5638006863037
119,본아이에프세브란스 ,본아이에프세브란스,,음식,별식/퓨전요리,서울특별시,서대문구,신촌동,신촌동,서울특별시 서대문구 신촌동 134,서울특별시 서대문구 연세로,서울특별시 서대문구 연세로 50,120749,3722.0,126.942916817516,37.5638006863037
120,불난집 ,불난집,,음식,한식,서울특별시,서대문구,홍제1동,홍제동,서울특별시 서대문구 홍제동 253-29,서울특별시 서대문구 통일로,서울특별시 서대문구 통일로 445,120090,3639.0,126.944244509641,37.5884199013883
121,레몬꽃 ,레몬꽃,,음식,한식,서울특별시,서대문구,연희동,연희동,서울특별시 서대문구 연희동 30,서울특별시 서대문구 연희로10길,서울특별시 서대문구 연희로10길 77,120823,3725.0,126.933372799809,37.5639401032523
122,예체능 ,예체능,,음식,유흥주점,서울특별시,서대문구,신촌동,창천동,서울특별시 서대문구 창천동 33-25,서울특별시 서대문구 연세로7안길,서울특별시 서대문구 연세로7안길 10,120834,3788.0,126.936420904323,37.5581378796785
123,별미닭곰탕 ,별미닭곰탕,,음식,한식,서울특별시,서대문구,충현동,충정로2가,서울특별시 서대문구 충정로2가 102-2,서울특별시 서대문구 경기대로,서울특별시 서대문구 경기대로 64,120012,3736.0,126.964073541603,37.5645288514417
124,명랑시대쌀핫도그 ,명랑시대쌀핫도그,,음식,패스트푸드,서울특별시,서대문구,북아현동,북아현동,서울특별시 서대문구 북아현동 129-50,서울특별시 서대문구 북아현로,서울특별시 서대문구 북아현로 28,120819,3756.0,126.95672352966,37.5599318940861
125,유월의살구나무 ,유월의살구나무,,음식,한식,서울특별시,서대문구,남가좌2동,남가좌동,서울특별시 서대문구 남가좌동 343-7,서울특별시 서대문구 거북골로,서울특별시 서대문구 거북골로 43-11,120120,3665.0,126.923568781694,37.5789975442899
126,분식매니아 ,분식매니아,,음식,분식,서울특별시,서대문구,신촌동,신촌동,서울특별시 서대문구 신촌동 134,서울특별시 서대문구 연세로,서울특별시 서대문구 연세로 50,120749,3722.0,126.942916817516,37.5638006863037
127,마포식당 ,마포식당,,음식,한식,서울특별시,서대문구,북가좌2동,북가좌동,서울특별시 서대문구 북가좌동 335-9,서울특별시 서대문구 응암로,서울특별시 서대문구 응암로 145,120130,3676.0,126.914963112138,37.58533411892
128,닭한마리 ,닭한마리,,음식,닭/오리요리,서울특별시,서대문구,홍제3동,홍제동,서울특별시 서대문구 홍제동 298-7,서울특별시 서대문구 통일로40안길,서울특별시 서대문구 통일로40안길 3-10,120857,3628.0,126.943470919347,37.5910800441591
129,실비집 ,실비집,,음식,유흥주점,서울특별시,서대문구,충현동,미근동,서울특별시 서대문구 미근동 193,서울특별시 서대문구 통일로,서울특별시 서대문구 통일로 107,120020,3739.0,126.967424759627,37.5644771163908
130,둘레마당 ,둘레마당,,음식,한식,서울특별시,서대문구,홍은1동,홍은동,서울특별시 서대문구 홍은동 9-497,서울특별시 서대문구 홍은중앙로8길,서울특별시 서대문구 홍은중앙로8길 2-9,120100,3605.0,126.94774451778,37.5987860295528
131,돼지마을 ,돼지마을,,음식,닭/오리요리,서울특별시,서대문구,천연동,영천동,서울특별시 서대문구 영천동 283,서울특별시 서대문구 영천시장길,서울특별시 서대문구 영천시장길 25,120070,3734.0,126.960983699518,37.5710252279125
132,설경 ,설경,,음식,한식,서울특별시,서대문구,홍은2동,홍은동,서울특별시 서대문구 홍은동 277-27,서울특별시 서대문구 모래내로,서울특별시 서대문구 모래내로 353,120100,3654.0,126.935374955815,37.5815284036455
133,엄마맛집 ,엄마맛집,,음식,한식,서울특별시,서대문구,남가좌1동,남가좌동,서울특별시 서대문구 남가좌동 289-42,서울특별시 서대문구 수색로4가길,서울특별시 서대문구 수색로4가길 6,120805,3712.0,126.914895710765,37.5704754319315
134,유닭스토리 신촌점,유닭스토리,신촌점,음식,닭/오리요리,서울특별시,서대문구,신촌동,창천동,서울특별시 서대문구 창천동 18-36,서울특별시 서대문구 신촌로,서울특별시 서대문구 신촌로 105-5,120833,3779.0,126.937541347207,37.5557512019029
135,아현한곱창 ,아현한곱창,,음식,한식,서울특별시,서대문구,북아현동,북아현동,서울특별시 서대문구 북아현동 221-14,서울특별시 서대문구 신촌로,서울특별시 서대문구 신촌로 229,120822,3774.0,126.951281382471,37.5573607643317
136,프렌즈 ,프렌즈,,음식,분식,서울특별시,서대문구,북가좌2동,북가좌동,서울특별시 서대문구 북가좌동 289-1,서울특별시 서대문구 증가로,서울특별시 서대문구 증가로 205-1,120812,3685.0,126.915510864768,37.5803564330963
137,명과식당 ,명과식당,,음식,한식,서울특별시,서대문구,충현동,충정로3가,서울특별시 서대문구 충정로3가 465,서울특별시 서대문구 서소문로,서울특별시 서대문구 서소문로 27,120013,3741.0,126.964845533717,37.5602736986601
138,예원 ,예원,,음식,유흥주점,서울특별시,서대문구,신촌동,창천동,서울특별시 서대문구 창천동 29-45,서울특별시 서대문구 연세로2가길,서울특별시 서대문구 연세로2가길 16,120833,3779.0,126.937719786685,37.5567349410874
139,맥주뚜껑 ,맥주뚜껑,,음식,유흥주점,서울특별시,서대문구,천연동,냉천동,서울특별시 서대문구 냉천동 232,서울특별시 서대문구 통일로,서울특별시 서대문구 통일로 149-1,120050,3735.0,126.964609353872,37.5675250064062
140,바른식당 ,바른식당,,음식,한식,서울특별시,서대문구,홍제1동,홍제동,서울특별시 서대문구 홍제동 156-263,서울특별시 서대문구 모래내로,서울특별시 서대문구 모래내로 445,120855,3646.0,126.944313342276,37.5851497566283
141,와이베를린 ,와이베를린,,음식,유흥주점,서울특별시,서대문구,연희동,연희동,서울특별시 서대문구 연희동 717-16,서울특별시 서대문구 홍연길,서울특별시 서대문구 홍연길 67,120827,3695.0,126.930308602339,37.5763737254316
142,백산왕인 ,백산왕인,,음식,한식,서울특별시,서대문구,북아현동,북아현동,서울특별시 서대문구 북아현동 125-19,서울특별시 서대문구 북아현로2안길,서울특별시 서대문구 북아현로2안길 9,120819,3757.0,126.957111798772,37.558061159143
143,일품식당 ,일품식당,,음식,한식,서울특별시,서대문구,충현동,미근동,서울특별시 서대문구 미근동 27,서울특별시 서대문구 충정로6안길,서울특별시 서대문구 충정로6안길 50,120020,3739.0,126.966703276497,37.5642635644035
144,동해기사식당 ,동해기사식당,,음식,한식,서울특별시,서대문구,북가좌1동,북가좌동,서울특별시 서대문구 북가좌동 350-2,서울특별시 서대문구 거북골로23길,서울특별시 서대문구 거북골로23길 58-8,120816,3713.0,126.904700936771,37.57788690165
145,물뛴다 ,물뛴다,,음식,한식,서울특별시,서대문구,충현동,충정로3가,서울특별시 서대문구 충정로3가 3-12,서울특별시 서대문구 경기대로,서울특별시 서대문구 경기대로 41-1,120837,3752.0,126.961962530347,37.5633029144368
146,고향숯불갈비 ,고향숯불갈비,,음식,한식,서울특별시,서대문구,홍제3동,홍제동,서울특별시 서대문구 홍제동 250-2,서울특별시 서대문구 세무서길,서울특별시 서대문구 세무서길 23,120090,3629.0,126.94536839071,37.5890156220742
147,백년칼국수 ,백년칼국수,,음식,분식,서울특별시,서대문구,남가좌2동,남가좌동,서울특별시 서대문구 남가좌동 345-4,서울특별시 서대문구 가재울로6길,서울특별시 서대문구 가재울로6길 53-87,120807,3692.0,126.923088061717,37.577001870807
148,부산일식 ,부산일식,,음식,일식/수산물,서울특별시,서대문구,남가좌2동,남가좌동,서울특별시 서대문구 남가좌동 347-13,서울특별시 서대문구 가재울로12길,서울특별시 서대문구 가재울로12길 40,120120,3692.0,126.922371679069,37.5772205919504
149,완숙 ,완숙,,음식,유흥주점,서울특별시,서대문구,남가좌2동,남가좌동,서울특별시 서대문구 남가좌동 322-23,서울특별시 서대문구 명지대길,서울특별시 서대문구 명지대길 35,120806,3673.0,126.924354567637,37.5818249480832
150,박리아김밥&피자 ,박리아김밥&피자,,음식,양식,서울특별시,서대문구,신촌동,창천동,서울특별시 서대문구 창천동 506-17,서울특별시 서대문구 신촌로,서울특별시 서대문구 신촌로 15,120836,3785.0,126.928722638016,37.558266507116
151,위 ,위,,음식,유흥주점,서울특별시,서대문구,충현동,북아현동,서울특별시 서대문구 북아현동 1-233,서울특별시 서대문구 북아현로,서울특별시 서대문구 북아현로 68,120865,3748.0,126.95507006129,37.5632421107086
152,밀탑 신촌점,밀탑,신촌점,음식,분식,서울특별시,서대문구,신촌동,창천동,서울특별시 서대문구 창천동 30-33,서울특별시 서대문구 신촌로,서울특별시 서대문구 신촌로 83,120706,3789.0,126.935827820491,37.556069154454
153,KFC 이대점,KFC,이대점,음식,닭/오리요리,서울특별시,서대문구,신촌동,대현동,서울특별시 서대문구 대현동 37-39,서울특별시 서대문구 이화여대길,서울특별시 서대문구 이화여대길 81,120808,3766.0,126.943913291151,37.5589620110387
154,이모네식당 ,이모네식당,,음식,한식,서울특별시,서대문구,홍제3동,홍제동,서울특별시 서대문구 홍제동 299-31,서울특별시 서대문구 통일로40안길,서울특별시 서대문구 통일로40안길 7,120857,3628.0,126.943470919347,37.5910800441591
155,칵테일바 ,칵테일바,,음식,유흥주점,서울특별시,서대문구,홍은2동,홍은동,서울특별시 서대문구 홍은동 201-1,서울특별시 서대문구 연희로,서울특별시 서대문구 연희로 353,120710,3650.0,126.935000611491,37.5895262212225
156,세양원 ,세양원,,음식,중식,서울특별시,서대문구,충현동,충정로3가,서울특별시 서대문구 충정로3가 465,서울특별시 서대문구 서소문로,서울특별시 서대문구 서소문로 27,120013,3741.0,126.964845533717,37.5602736986601
157,유채우요리사랑 ,유채우요리사랑,,음식,한식,서울특별시,서대문구,신촌동,창천동,서울특별시 서대문구 창천동 78-14,서울특별시 서대문구 연세로,서울특별시 서대문구 연세로 41,120835,3788.0,126.936744918335,37.5592310559645
158,치킨시대명지대점 명지대점,치킨시대명지대점,명지대점,음식,닭/오리요리,서울특별시,서대문구,남가좌2동,남가좌동,서울특별시 서대문구 남가좌동 344-19,서울특별시 서대문구 거북골로,서울특별시 서대문구 거북골로 53-24,120120,3665.0,126.923083291584,37.5781191115486
159,단독 ,단독,,음식,유흥주점,서울특별시,서대문구,충현동,충정로3가,서울특별시 서대문구 충정로3가 162-7,서울특별시 서대문구 충정로5길,서울특별시 서대문구 충정로5길 6,120838,3737.0,126.963804483967,37.562706387746
160,다림정 ,다림정,,음식,유흥주점,서울특별시,서대문구,홍은2동,홍은동,서울특별시 서대문구 홍은동 204-4,서울특별시 서대문구 연희로41길,서울특별시 서대문구 연희로41길 33,120100,3650.0,126.935195414992,37.5901587031587
161,김밥마을 ,김밥마을,,음식,분식,서울특별시,서대문구,신촌동,창천동,서울특별시 서대문구 창천동 119,서울특별시 서대문구 신촌로1길,서울특별시 서대문구 신촌로1길 111,120180,3782.0,126.930958831334,37.5609808831129
162,성복수산 ,성복수산,,음식,일식/수산물,서울특별시,서대문구,천연동,옥천동,서울특별시 서대문구 옥천동 68,서울특별시 서대문구 영천시장길,서울특별시 서대문구 영천시장길 56,120060,3734.0,126.962040664419,37.5699082264449
163,야간열차 ,야간열차,,음식,닭/오리요리,서울특별시,서대문구,북아현동,북아현동,서울특별시 서대문구 북아현동 221-13,서울특별시 서대문구 신촌로,서울특별시 서대문구 신촌로 227,120822,3774.0,126.951145707604,37.557350548703
164,니뽕내뽕 ,니뽕내뽕,,음식,한식,서울특별시,서대문구,신촌동,창천동,서울특별시 서대문구 창천동 13-9,서울특별시 서대문구 명물길,서울특별시 서대문구 명물길 26,120833,3777.0,126.938235560335,37.5578748908068
165,이원 ,이원,,음식,유흥주점,서울특별시,서대문구,신촌동,창천동,서울특별시 서대문구 창천동 18-13,서울특별시 서대문구 연세로4길,서울특별시 서대문구 연세로4길 6-3,120833,3779.0,126.937277287036,37.556812052491
166,신촌생고기 ,신촌생고기,,음식,한식,서울특별시,서대문구,신촌동,창천동,서울특별시 서대문구 창천동 2-78,서울특별시 서대문구 연세로12길,서울특별시 서대문구 연세로12길 39,120833,3776.0,126.939189645551,37.5592350267847
167,우리동네포차 ,우리동네포차,,음식,유흥주점,서울특별시,서대문구,홍제2동,홍제동,서울특별시 서대문구 홍제동 102-3,서울특별시 서대문구 통일로,서울특별시 서대문구 통일로 374,120090,3633.0,126.9497682862,37.5837117084182
168,만나김밥 ,만나김밥,,음식,분식,서울특별시,서대문구,신촌동,대현동,서울특별시 서대문구 대현동 67-40,서울특별시 서대문구 이화여대2다길,서울특별시 서대문구 이화여대2다길 23,120808,3767.0,126.948075618873,37.5583594315445
169,피자아일랜드 ,피자아일랜드,,음식,패스트푸드,서울특별시,서대문구,홍은2동,홍은동,서울특별시 서대문구 홍은동 202-5,서울특별시 서대문구 연희로,서울특별시 서대문구 연희로 377,120772,3648.0,126.93641965453,37.5892687064609
170,천하태평생고기 ,천하태평생고기,,음식,한식,서울특별시,서대문구,충현동,북아현동,서울특별시 서대문구 북아현동 113-72,서울특별시 서대문구 북아현로4차길,서울특별시 서대문구 북아현로4차길 8-19,120819,3751.0,126.96059318224,37.5608400353809
171,불타는곱창 ,불타는곱창,,음식,한식,서울특별시,서대문구,신촌동,창천동,서울특별시 서대문구 창천동 52-43,서울특별시 서대문구 연세로7안길,서울특별시 서대문구 연세로7안길 10-3,120834,3788.0,126.936181585822,37.5582528586696
172,큰손할매순대국 서대문구청점,큰손할매순대국,서대문구청점,음식,별식/퓨전요리,서울특별시,서대문구,홍은2동,홍은동,서울특별시 서대문구 홍은동 277-37,서울특별시 서대문구 모래내로17길,서울특별시 서대문구 모래내로17길 66-12,120100,3654.0,126.935128731,37.5813279546778
173,피자스쿨 홍제점,피자스쿨,홍제점,음식,패스트푸드,서울특별시,서대문구,홍제2동,홍제동,서울특별시 서대문구 홍제동 139-45,서울특별시 서대문구 통일로,서울특별시 서대문구 통일로 414,120090,3632.0,126.947034737301,37.5864715573341
174,돌로고기굽는집 ,돌로고기굽는집,,음식,한식,서울특별시,서대문구,홍은2동,홍은동,서울특별시 서대문구 홍은동 400-9,서울특별시 서대문구 가좌로,서울특별시 서대문구 가좌로 105,120848,3675.0,126.926153471271,37.5819134101375
175,초밥사랑 본점,초밥사랑,본점,음식,일식/수산물,서울특별시,서대문구,충현동,북아현동,서울특별시 서대문구 북아현동 3-198,서울특별시 서대문구 북아현로,서울특별시 서대문구 북아현로 54,120818,3750.0,126.9558216795,37.5621044395819
176,레드후라이팬 ,레드후라이팬,,음식,분식,서울특별시,서대문구,남가좌2동,남가좌동,서울특별시 서대문구 남가좌동 344-2,서울특별시 서대문구 거북골로,서울특별시 서대문구 거북골로 53-6,120120,3665.0,126.922538902646,37.5781862265671
177,피자마루 북가좌점,피자마루,북가좌점,음식,패스트푸드,서울특별시,서대문구,북가좌2동,북가좌동,서울특별시 서대문구 북가좌동 3-40,서울특별시 서대문구 증가로24바길,서울특별시 서대문구 증가로24바길 71,120130,3668.0,126.919308274918,37.5831664480452
178,컬쳐컴플렉스 신촌점,컬쳐컴플렉스,신촌점,음식,유흥주점,서울특별시,서대문구,신촌동,창천동,서울특별시 서대문구 창천동 18-11,서울특별시 서대문구 연세로4길,서울특별시 서대문구 연세로4길 6,120833,3779.0,126.937332462787,37.5569116635082
179,푸짐한포장마차 ,푸짐한포장마차,,음식,유흥주점,서울특별시,서대문구,북아현동,북아현동,서울특별시 서대문구 북아현동 154-4,서울특별시 서대문구 신촌로35길,서울특별시 서대문구 신촌로35길 1,120819,3775.0,126.955194721452,37.5575576474036
180,놀부보쌈놀부부대찌개홍제점 놀부부대찌개홍제점,놀부보쌈놀부부대찌개홍제점,놀부부대찌개홍제점,음식,한식,서울특별시,서대문구,홍제1동,홍제동,서울특별시 서대문구 홍제동 469,서울특별시 서대문구 통일로,서울특별시 서대문구 통일로 397,120090,3730.0,126.947380558663,37.5852312117832
181,신전떡볶이 신촌점,신전떡볶이,신촌점,음식,분식,서울특별시,서대문구,신촌동,대현동,서울특별시 서대문구 대현동 101-11,서울특별시 서대문구 이화여대1길,서울특별시 서대문구 이화여대1길 46,120809,3766.0,126.943268746757,37.5573163507455
182,청와면옥함흥냉면 ,청와면옥함흥냉면,,음식,한식,서울특별시,서대문구,북가좌2동,북가좌동,서울특별시 서대문구 북가좌동 293-4,서울특별시 서대문구 응암로,서울특별시 서대문구 응암로 94,120812,3682.0,126.912555713406,37.5811491867917
183,미소떡볶이 ,미소떡볶이,,음식,분식,서울특별시,서대문구,남가좌2동,남가좌동,서울특별시 서대문구 남가좌동 5-178,서울특별시 서대문구 명지대3길,서울특별시 서대문구 명지대3길 1,120120,3673.0,126.923613296005,37.5821966254707
184,골목식당 ,골목식당,,음식,한식,서울특별시,서대문구,천연동,천연동,서울특별시 서대문구 천연동 53,서울특별시 서대문구 통일로11길,서울특별시 서대문구 통일로11길 17,120040,3734.0,126.962109759877,37.5690077941111
185,부산숯불꼼장어 ,부산숯불꼼장어,,음식,일식/수산물,서울특별시,서대문구,북가좌2동,북가좌동,서울특별시 서대문구 북가좌동 292-1,서울특별시 서대문구 응암로,서울특별시 서대문구 응암로 108,120130,3682.0,126.913322273059,37.5821563944727
186,잇츠라이프 ,잇츠라이프,,음식,유흥주점,서울특별시,서대문구,신촌동,창천동,서울특별시 서대문구 창천동 52-124,서울특별시 서대문구 연세로7안길,서울특별시 서대문구 연세로7안길 16-4,120834,3788.0,126.936045527501,37.5582696534184
187,이가네기사식당 ,이가네기사식당,,음식,한식,서울특별시,서대문구,북가좌2동,북가좌동,서울특별시 서대문구 북가좌동 351-6,서울특별시 서대문구 응암로,서울특별시 서대문구 응암로 144,120132,3667.0,126.915241349738,37.584886159338
188,한스델리 홍제점플러스,한스델리,홍제점플러스,음식,양식,서울특별시,서대문구,홍제1동,홍제동,서울특별시 서대문구 홍제동 165-2,서울특별시 서대문구 통일로,서울특별시 서대문구 통일로 425,120859,3646.0,126.945770338687,37.5870099029372
189,똥돼지마을 ,똥돼지마을,,음식,한식,서울특별시,서대문구,홍제3동,홍제동,서울특별시 서대문구 홍제동 268-7,서울특별시 서대문구 세무서길,서울특별시 서대문구 세무서길 80,120857,3627.0,126.947012626395,37.5912558603078
190,김밥전통만두 ,김밥전통만두,,음식,분식,서울특별시,서대문구,연희동,연희동,서울특별시 서대문구 연희동 187-61,서울특별시 서대문구 연희로,서울특별시 서대문구 연희로 88,120830,3725.0,126.93037922645,37.5658953027135
191,여수집 ,여수집,,음식,한식,서울특별시,서대문구,남가좌2동,남가좌동,서울특별시 서대문구 남가좌동 5-179,서울특별시 서대문구 명지대1라길,서울특별시 서대문구 명지대1라길 2,120120,3673.0,126.923615112009,37.5820704971231
192,BBQ치킨 ,BBQ치킨,,음식,유흥주점,서울특별시,서대문구,북가좌2동,북가좌동,서울특별시 서대문구 북가좌동 347-1,서울특별시 서대문구 불광천길,서울특별시 서대문구 불광천길 116,120814,3680.0,126.907670912563,37.5807256493814
193,생고기짐 ,생고기짐,,음식,한식,서울특별시,서대문구,연희동,연희동,서울특별시 서대문구 연희동 519-115,서울특별시 서대문구 홍제천로,서울특별시 서대문구 홍제천로 76,120832,3700.0,126.923557431116,37.5727082096189
194,펀비어킹 신촌유플렉스점,펀비어킹,신촌유플렉스점,음식,유흥주점,서울특별시,서대문구,신촌동,창천동,서울특별시 서대문구 창천동 57-22,서울특별시 서대문구 연세로5가길,서울특별시 서대문구 연세로5가길 22,120834,3789.0,126.935480673108,37.5573995637683
195,경기식당 ,경기식당,,음식,한식,서울특별시,서대문구,충현동,충정로2가,서울특별시 서대문구 충정로2가 103,서울특별시 서대문구 충정로9길,서울특별시 서대문구 충정로9길 22,120012,3736.0,126.964187219523,37.564493807257
196,화상손만두 ,화상손만두,,음식,한식,서울특별시,서대문구,신촌동,대현동,서울특별시 서대문구 대현동 27-51,서울특별시 서대문구 이화여대7길,서울특별시 서대문구 이화여대7길 46,120808,3766.0,126.943228554324,37.5585594263861
197,한울타리 ,한울타리,,음식,한식,서울특별시,서대문구,신촌동,창천동,서울특별시 서대문구 창천동 52-122,서울특별시 서대문구 연세로7안길,서울특별시 서대문구 연세로7안길 10-1,120834,3788.0,126.936171421798,37.5581716735249
198,하루돈 서대문점,하루돈,서대문점,음식,한식,서울특별시,서대문구,충현동,미근동,서울특별시 서대문구 미근동 168,서울특별시 서대문구 통일로,서울특별시 서대문구 통일로 109,120020,3738.0,126.96731929184,37.5647374957535
199,꼬꼬야닭먹자 ,꼬꼬야닭먹자,,음식,닭/오리요리,서울특별시,서대문구,북가좌2동,북가좌동,서울특별시 서대문구 북가좌동 292-16,서울특별시 서대문구 증가로,서울특별시 서대문구 증가로 227,120812,3682.0,126.913848900442,37.5817557761143
200,주인백파스타 ,주인백파스타,,음식,양식,서울특별시,서대문구,남가좌2동,남가좌동,서울특별시 서대문구 남가좌동 324-11,서울특별시 서대문구 증가로10길,서울특별시 서대문구 증가로10길 57,120806,3665.0,126.924897279824,37.5795142315285
201,테이블비 ,테이블비,,음식,한식,서울특별시,서대문구,신촌동,창천동,서울특별시 서대문구 창천동 20-51,서울특별시 서대문구 신촌로,서울특별시 서대문구 신촌로 119,120833,3780.0,126.939006868199,37.5561608384568
202,떡튀순일번가 홍제점,떡튀순일번가,홍제점,음식,분식,서울특별시,서대문구,홍제3동,홍제동,서울특별시 서대문구 홍제동 254-1,서울특별시 서대문구 세무서1길,서울특별시 서대문구 세무서1길 7,120857,3629.0,126.945142087231,37.5890045894204
203,하하비어 ,하하비어,,음식,유흥주점,서울특별시,서대문구,홍제2동,홍제동,서울특별시 서대문구 홍제동 216-1,서울특별시 서대문구 세무서2길,서울특별시 서대문구 세무서2길 18,120090,3630.0,126.94657152094,37.588810117634
204,오바다 ,오바다,,음식,한식,서울특별시,서대문구,홍은2동,홍은동,서울특별시 서대문구 홍은동 409-52,서울특별시 서대문구 거북골로,서울특별시 서대문구 거북골로 21-9,120848,3662.0,126.925210225527,37.579796402426
205,배스킨라빈스31북가좌점 북가좌점,배스킨라빈스31북가좌점,북가좌점,음식,패스트푸드,서울특별시,서대문구,북가좌2동,북가좌동,서울특별시 서대문구 북가좌동 307-8,서울특별시 서대문구 응암로,서울특별시 서대문구 응암로 53,120814,3681.0,126.9097570371,37.5781950086813
206,오십구년옛날통닭 ,오십구년옛날통닭,,음식,유흥주점,서울특별시,서대문구,북가좌2동,북가좌동,서울특별시 서대문구 북가좌동 278-1,서울특별시 서대문구 응암로,서울특별시 서대문구 응암로 126,120812,3667.0,126.914230393475,37.5835523440771
207,우정생고기 ,우정생고기,,음식,한식,서울특별시,서대문구,홍제2동,홍제동,서울특별시 서대문구 홍제동 139-13,서울특별시 서대문구 홍제원길,서울특별시 서대문구 홍제원길 4-1,120090,3632.0,126.947259891517,37.5865636693236
208,어도횟집 ,어도횟집,,음식,일식/수산물,서울특별시,서대문구,충현동,미근동,서울특별시 서대문구 미근동 90-14,서울특별시 서대문구 충정로6안길,서울특별시 서대문구 충정로6안길 4,120020,3739.0,126.96759949411,37.5624783332585
209,디코아트 ,디코아트,,음식,별식/퓨전요리,서울특별시,서대문구,북아현동,북아현동,서울특별시 서대문구 북아현동 221-7,서울특별시 서대문구 신촌로,서울특별시 서대문구 신촌로 231,120822,3774.0,126.95157486093,37.5574174332628
210,디디치킨독립문점 독립문점,디디치킨독립문점,독립문점,음식,닭/오리요리,서울특별시,서대문구,천연동,옥천동,서울특별시 서대문구 옥천동 124-2,서울특별시 서대문구 독립문로4길,서울특별시 서대문구 독립문로4길 5-6,120040,3744.0,126.960068956697,37.5700530609878
211,막걸리싸롱 ,막걸리싸롱,,음식,유흥주점,서울특별시,서대문구,신촌동,창천동,서울특별시 서대문구 창천동 52-8,서울특별시 서대문구 연세로11길,서울특별시 서대문구 연세로11길 10,120834,3788.0,126.936272294439,37.5590375803416
212,낙원집 ,낙원집,,음식,분식,서울특별시,서대문구,홍제3동,홍제동,서울특별시 서대문구 홍제동 298-7,서울특별시 서대문구 통일로40안길,서울특별시 서대문구 통일로40안길 3-10,120090,3628.0,126.943470919347,37.5910800441591
213,세화네 ,세화네,,음식,유흥주점,서울특별시,서대문구,홍은1동,홍은동,서울특별시 서대문구 홍은동 9-149,서울특별시 서대문구 포방터2길,서울특별시 서대문구 포방터2길 3,120100,3606.0,126.949327587495,37.5989533093199
214,궁전순대국 ,궁전순대국,,음식,별식/퓨전요리,서울특별시,서대문구,북가좌2동,북가좌동,서울특별시 서대문구 북가좌동 299-3,서울특별시 서대문구 응암로,서울특별시 서대문구 응암로 80,120130,3683.0,126.911677940709,37.5800057935957
215,피자스쿨 연희점,피자스쿨,연희점,음식,패스트푸드,서울특별시,서대문구,연희동,연희동,서울특별시 서대문구 연희동 194-30,서울특별시 서대문구 연희로,서울특별시 서대문구 연희로 82,120830,3726.0,126.930139894846,37.5652173555281
216,달카페 ,달카페,,음식,한식,서울특별시,서대문구,신촌동,창천동,서울특별시 서대문구 창천동 13-14,서울특별시 서대문구 연세로4길,서울특별시 서대문구 연세로4길 29,120833,3777.0,126.938294828804,37.5576862054464
217,써브웨이충정로점 충정로점,써브웨이충정로점,충정로점,음식,패스트푸드,서울특별시,서대문구,충현동,충정로3가,서울특별시 서대문구 충정로3가 470,서울특별시 서대문구 충정로,서울특별시 서대문구 충정로 23,120714,3737.0,126.962932122793,37.5611309165186
218,연안정육점식당 ,연안정육점식당,,음식,한식,서울특별시,서대문구,북가좌2동,북가좌동,서울특별시 서대문구 북가좌동 330-15,서울특별시 서대문구 증가로,서울특별시 서대문구 증가로 258,120130,3677.0,126.911623249104,37.5837626018184
219,대진아이엠 ,대진아이엠,,음식,한식,서울특별시,서대문구,연희동,연희동,서울특별시 서대문구 연희동 740,서울특별시 서대문구 연희로32길,서울특별시 서대문구 연희로32길 48,120734,3719.0,126.937366974479,37.5759959680567
220,민영이네 ,민영이네,,음식,분식,서울특별시,서대문구,홍제2동,홍제동,서울특별시 서대문구 홍제동 460,서울특별시 서대문구 통일로34길,서울특별시 서대문구 통일로34길 46,120787,3633.0,126.950506222848,37.5859888843694
221,제주돈이야기 ,제주돈이야기,,음식,한식,서울특별시,서대문구,천연동,옥천동,서울특별시 서대문구 옥천동 7-1,서울특별시 서대문구 통일로11길,서울특별시 서대문구 통일로11길 10,120040,3734.0,126.962479273385,37.5692993749833
222,파파노다이닝 ,파파노다이닝,,음식,양식,서울특별시,서대문구,신촌동,대현동,서울특별시 서대문구 대현동 34-51,서울특별시 서대문구 이화여대길,서울특별시 서대문구 이화여대길 88-14,120808,3765.0,126.944110639809,37.5594142961916
223,연세대하얀샘 ,연세대하얀샘,,음식,분식,서울특별시,서대문구,신촌동,신촌동,서울특별시 서대문구 신촌동 134,서울특별시 서대문구 연세로,서울특별시 서대문구 연세로 50,120749,3722.0,126.942916817516,37.5638006863037
224,참나라숯불바베큐 ,참나라숯불바베큐,,음식,양식,서울특별시,서대문구,천연동,영천동,서울특별시 서대문구 영천동 69-9,서울특별시 서대문구 성산로,서울특별시 서대문구 성산로 700,120070,3734.0,126.959608978828,37.5713825464746
225,도깨비손칼국수 ,도깨비손칼국수,,음식,분식,서울특별시,서대문구,천연동,영천동,서울특별시 서대문구 영천동 198,서울특별시 서대문구 영천시장길,서울특별시 서대문구 영천시장길 40,120040,3734.0,126.961378675109,37.5702988615485
226,봉설렁탕 ,봉설렁탕,,음식,한식,서울특별시,서대문구,신촌동,창천동,서울특별시 서대문구 창천동 18-62,서울특별시 서대문구 명물길,서울특별시 서대문구 명물길 4,120833,3777.0,126.937236555433,37.557289236954
227,와사비횟집 ,와사비횟집,,음식,일식/수산물,서울특별시,서대문구,신촌동,창천동,서울특별시 서대문구 창천동 5-94,서울특별시 서대문구 연세로4길,서울특별시 서대문구 연세로4길 48,120833,3777.0,126.939082148409,37.558035678028
228,킹샤브 ,킹샤브,,음식,별식/퓨전요리,서울특별시,서대문구,북가좌2동,북가좌동,서울특별시 서대문구 북가좌동 293-1,서울특별시 서대문구 응암로,서울특별시 서대문구 응암로 102-18,120812,3682.0,126.913242972897,37.5813807748793
229,요릿집 ,요릿집,,음식,한식,서울특별시,서대문구,연희동,연희동,서울특별시 서대문구 연희동 137-4,서울특별시 서대문구 연희맛로,서울특별시 서대문구 연희맛로 36,120825,3708.0,126.931063034105,37.5679468522713
230,포베이세브란스점 세브란스점,포베이세브란스점,세브란스점,음식,별식/퓨전요리,서울특별시,서대문구,신촌동,신촌동,서울특별시 서대문구 신촌동 134,서울특별시 서대문구 연세로,서울특별시 서대문구 연세로 50,120749,3722.0,126.942916817516,37.5638006863037
231,역전주야식당 ,역전주야식당,,음식,음식배달서비스,서울특별시,서대문구,남가좌1동,남가좌동,서울특별시 서대문구 남가좌동 291-26,서울특별시 서대문구 수색로,서울특별시 서대문구 수색로 26-2,120805,3712.0,126.915580751625,37.5692923589403
232,녹원쌈밥 ,녹원쌈밥,,음식,한식,서울특별시,서대문구,연희동,연희동,서울특별시 서대문구 연희동 82-3,서울특별시 서대문구 연희로25길,서울특별시 서대문구 연희로25길 22,120824,3697.0,126.934122818117,37.5724706959147
233,신내린갈비찜신나는쭈꾸미 ,신내린갈비찜신나는쭈꾸미,,음식,일식/수산물,서울특별시,서대문구,홍은2동,홍은동,서울특별시 서대문구 홍은동 421-27,서울특별시 서대문구 명지대길,서울특별시 서대문구 명지대길 34,120848,3675.0,126.924581104562,37.5818180018861
234,버텍스미국식덮밥 이대점,버텍스미국식덮밥,이대점,음식,양식,서울특별시,서대문구,신촌동,대현동,서울특별시 서대문구 대현동 34-19,서울특별시 서대문구 이화여대길,서울특별시 서대문구 이화여대길 52-39,120808,3765.0,126.945128666231,37.559459438119
235,반올림피자샵홍제 연희점,반올림피자샵홍제,연희점,음식,패스트푸드,서울특별시,서대문구,홍제1동,홍제동,서울특별시 서대문구 홍제동 330-117,서울특별시 서대문구 통일로39길,서울특별시 서대문구 통일로39길 22-58,120859,3637.0,126.94161940284,37.5898921100359
236,마포가든 ,마포가든,,음식,한식,서울특별시,서대문구,북아현동,북아현동,서울특별시 서대문구 북아현동 130-7,서울특별시 서대문구 북아현로2길,서울특별시 서대문구 북아현로2길 11,120819,3757.0,126.956923695359,37.5585640804492
237,샵402 ,샵402,,음식,한식,서울특별시,서대문구,홍은2동,홍은동,서울특별시 서대문구 홍은동 402-1,서울특별시 서대문구 가좌로,서울특별시 서대문구 가좌로 97,120100,3662.0,126.926807527655,37.5813066545495
238,오리옥스신촌세브란스점 신촌세브란스점,오리옥스신촌세브란스점,신촌세브란스점,음식,부페,서울특별시,서대문구,신촌동,신촌동,서울특별시 서대문구 신촌동 134,서울특별시 서대문구 연세로,서울특별시 서대문구 연세로 50,120749,3722.0,126.942916817516,37.5638006863037
239,생고기전문점 ,생고기전문점,,음식,한식,서울특별시,서대문구,홍은2동,홍은동,서울특별시 서대문구 홍은동 274-3,서울특별시 서대문구 모래내로,서울특별시 서대문구 모래내로 347,120100,3654.0,126.934936285391,37.581326218392
240,찜닭로드 ,찜닭로드,,음식,한식,서울특별시,서대문구,신촌동,창천동,서울특별시 서대문구 창천동 33-7,서울특별시 서대문구 연세로9길,서울특별시 서대문구 연세로9길 10-6,120834,3788.0,126.936513920294,37.5587604348715
241,버거헌터 세브란스병원점,버거헌터,세브란스병원점,음식,패스트푸드,서울특별시,서대문구,신촌동,신촌동,서울특별시 서대문구 신촌동 134,서울특별시 서대문구 연세로,서울특별시 서대문구 연세로 50,120749,3722.0,126.942916817516,37.5638006863037
242,이화원 ,이화원,,음식,중식,서울특별시,서대문구,홍제1동,홍제동,서울특별시 서대문구 홍제동 315-1,서울특별시 서대문구 통일로37길,서울특별시 서대문구 통일로37길 19,120090,3646.0,126.944247440844,37.587410767558
243,백년추어탕 ,백년추어탕,,음식,한식,서울특별시,서대문구,연희동,연희동,서울특별시 서대문구 연희동 133-1,서울특별시 서대문구 증가로,서울특별시 서대문구 증가로 9,120825,3703.0,126.931373501797,37.5691930950393
244,엔터바 ,엔터바,,음식,유흥주점,서울특별시,서대문구,신촌동,창천동,서울특별시 서대문구 창천동 52-19,서울특별시 서대문구 연세로9길,서울특별시 서대문구 연세로9길 10-7,120834,3788.0,126.936161558643,37.5588653850785
245,풍년식당 ,풍년식당,,음식,한식,서울특별시,서대문구,북가좌1동,북가좌동,서울특별시 서대문구 북가좌동 382-18,서울특별시 서대문구 수색로10길,서울특별시 서대문구 수색로10길 12-1,120816,3714.0,126.905412166528,37.5757039852752
246,미스사이공 충정로역점,미스사이공,충정로역점,음식,한식,서울특별시,서대문구,충현동,충정로3가,서울특별시 서대문구 충정로3가 480,서울특별시 서대문구 경기대로,서울특별시 서대문구 경기대로 26-26,120013,3737.0,126.962175358464,37.5610161416097
247,페리카나홍제점 홍제점,페리카나홍제점,홍제점,음식,닭/오리요리,서울특별시,서대문구,홍제2동,홍제동,서울특별시 서대문구 홍제동 217-1,서울특별시 서대문구 세무서2길,서울특별시 서대문구 세무서2길 24,120090,3630.0,126.946867657301,37.5886866152771
248,고기각 ,고기각,,음식,한식,서울특별시,서대문구,북가좌2동,북가좌동,서울특별시 서대문구 북가좌동 307-9,서울특별시 서대문구 거북골로,서울특별시 서대문구 거북골로 192,120814,3681.0,126.909600399824,37.5780674170149
249,고흥식당2 ,고흥식당2,,음식,한식,서울특별시,서대문구,홍제3동,홍제동,서울특별시 서대문구 홍제동 294-36,서울특별시 서대문구 통일로,서울특별시 서대문구 통일로 476,120857,3628.0,126.942443437038,37.5908726144332
250,바르다김선생 가재울뉴타운점,바르다김선생,가재울뉴타운점,음식,분식,서울특별시,서대문구,북가좌1동,북가좌동,서울특별시 서대문구 북가좌동 481,서울특별시 서대문구 수색로,서울특별시 서대문구 수색로 100,120725,3709.0,126.910704682403,37.573761655028
251,유가네기사식당 ,유가네기사식당,,음식,한식,서울특별시,서대문구,충현동,북아현동,서울특별시 서대문구 북아현동 187-10,서울특별시 서대문구 북아현로,서울특별시 서대문구 북아현로 93,120818,3761.0,126.952751766469,37.5647082847374
252,청기와식당 ,청기와식당,,음식,한식,서울특별시,서대문구,충현동,북아현동,서울특별시 서대문구 북아현동 1-778,서울특별시 서대문구 북아현로,서울특별시 서대문구 북아현로 98,120866,3747.0,126.952506774046,37.5652287143005
253,문영 ,문영,,음식,한식,서울특별시,서대문구,충현동,합동,서울특별시 서대문구 합동 18-3,서울특별시 서대문구 서소문로,서울특별시 서대문구 서소문로 59,120030,3741.0,126.967790022632,37.5617952078105
254,사조회참치 서대문점,사조회참치,서대문점,음식,일식/수산물,서울특별시,서대문구,충현동,충정로2가,서울특별시 서대문구 충정로2가 157,서울특별시 서대문구 통일로,서울특별시 서대문구 통일로 107-39,120707,3740.0,126.966104301464,37.5641952475034
255,배달돼지소태식품 ,배달돼지소태식품,,음식,분식,서울특별시,서대문구,신촌동,창천동,서울특별시 서대문구 창천동 53-23,서울특별시 서대문구 연세로7길,서울특별시 서대문구 연세로7길 46,120834,3787.0,126.9343740994,37.5580112984797
256,압구정봉구비어 ,압구정봉구비어,,음식,유흥주점,서울특별시,서대문구,홍제3동,홍제동,서울특별시 서대문구 홍제동 292-16,서울특별시 서대문구 간호대로,서울특별시 서대문구 간호대로 23,120090,3619.0,126.947795710478,37.596759158216
257,술이생각 ,술이생각,,음식,유흥주점,서울특별시,서대문구,홍제1동,홍제동,서울특별시 서대문구 홍제동 90-20,서울특별시 서대문구 통일로27길,서울특별시 서대문구 통일로27길 9,120853,3730.0,126.948889321894,37.5834155527623
258,7번가피자 가좌연희점,7번가피자,가좌연희점,음식,패스트푸드,서울특별시,서대문구,남가좌2동,남가좌동,서울특별시 서대문구 남가좌동 339-31,서울특별시 서대문구 증가로,서울특별시 서대문구 증가로 112,120807,3666.0,126.925104899601,37.5768850979374
259,아부아부 ,아부아부,,음식,양식,서울특별시,서대문구,신촌동,대현동,서울특별시 서대문구 대현동 53-23,서울특별시 서대문구 이화여대2가길,서울특별시 서대문구 이화여대2가길 12,120808,3767.0,126.946259180898,37.5579467756907
260,달롤 ,달롤,,음식,분식,서울특별시,서대문구,연희동,연희동,서울특별시 서대문구 연희동 192-28,서울특별시 서대문구 연희로11가길,서울특별시 서대문구 연희로11가길 51,120825,3707.0,126.927531699259,37.566338008346
261,야자클럽 ,야자클럽,,음식,유흥주점,서울특별시,서대문구,신촌동,창천동,서울특별시 서대문구 창천동 53-79,서울특별시 서대문구 연세로11길,서울특별시 서대문구 연세로11길 35,120834,3787.0,126.934815100267,37.5588352239511
262,007떡볶이 ,007떡볶이,,음식,분식,서울특별시,서대문구,연희동,연희동,서울특별시 서대문구 연희동 446-170,서울특별시 서대문구 성산로,서울특별시 서대문구 성산로 273,120832,3706.0,126.920559678609,37.5670673775696
263,인삼갈비생삼겹 ,인삼갈비생삼겹,,음식,한식,서울특별시,서대문구,홍은2동,홍은동,서울특별시 서대문구 홍은동 274-58,서울특별시 서대문구 모래내로,서울특별시 서대문구 모래내로 342,120100,3658.0,126.934654538007,37.5804406604812
264,대피공간 ,대피공간,,음식,유흥주점,서울특별시,서대문구,충현동,충정로3가,서울특별시 서대문구 충정로3가 250-4,서울특별시 서대문구 충정로4길,서울특별시 서대문구 충정로4길 5-6,120840,3741.0,126.964177658053,37.5610967988904
265,딸기골분식 ,딸기골분식,,음식,분식,서울특별시,서대문구,신촌동,대신동,서울특별시 서대문구 대신동 84-8,서울특별시 서대문구 연대동문길,서울특별시 서대문구 연대동문길 29,120160,3721.0,126.943809517337,37.5639077904584
266,푸라닭치킨 홍제점,푸라닭치킨,홍제점,음식,닭/오리요리,서울특별시,서대문구,홍제3동,홍제동,서울특별시 서대문구 홍제동 279-24,서울특별시 서대문구 세검정로,서울특별시 서대문구 세검정로 94,120863,3618.0,126.949133899136,37.5958159840372
267,평동양곱창 ,평동양곱창,,음식,한식,서울특별시,서대문구,천연동,냉천동,서울특별시 서대문구 냉천동 263,서울특별시 서대문구 경기대로,서울특별시 서대문구 경기대로 84,120050,3735.0,126.964774447387,37.566228956048
268,케이엠지엠 신촌점,케이엠지엠,신촌점,음식,유흥주점,서울특별시,서대문구,신촌동,창천동,서울특별시 서대문구 창천동 57-59,서울특별시 서대문구 연세로5가길,서울특별시 서대문구 연세로5가길 27,120834,3789.0,126.935098853932,37.557188881388
269,부엉이돈까스 ,부엉이돈까스,,음식,양식,서울특별시,서대문구,신촌동,창천동,서울특별시 서대문구 창천동 5-70,서울특별시 서대문구 연세로4길,서울특별시 서대문구 연세로4길 62,120833,3777.0,126.939743457881,37.5584921386041
270,마산아구찜 ,마산아구찜,,음식,일식/수산물,서울특별시,서대문구,북아현동,북아현동,서울특별시 서대문구 북아현동 125-24,서울특별시 서대문구 북아현로2안길,서울특별시 서대문구 북아현로2안길 7,120819,3757.0,126.957019631109,37.5581774803162
271,깡통집 ,깡통집,,음식,유흥주점,서울특별시,서대문구,홍은2동,홍은동,서울특별시 서대문구 홍은동 410-41,서울특별시 서대문구 증가로10길,서울특별시 서대문구 증가로10길 62,120100,3662.0,126.925293868989,37.5794908119088
272,이집이네포차 ,이집이네포차,,음식,유흥주점,서울특별시,서대문구,북가좌2동,북가좌동,서울특별시 서대문구 북가좌동 293-4,서울특별시 서대문구 응암로,서울특별시 서대문구 응암로 94,120812,3682.0,126.912555713406,37.5811491867917
273,두찜 신촌점,두찜,신촌점,음식,닭/오리요리,서울특별시,서대문구,신촌동,창천동,서울특별시 서대문구 창천동 52-150,서울특별시 서대문구 연세로11길,서울특별시 서대문구 연세로11길 16,120834,3788.0,126.935876328945,37.5590250016851
274,장수가든 ,장수가든,,음식,한식,서울특별시,서대문구,충현동,충정로3가,서울특별시 서대문구 충정로3가 3-96,서울특별시 서대문구 경기대로9길,서울특별시 서대문구 경기대로9길 81,120837,3752.0,126.959683205542,37.5644181623244
275,헬로앨리스마켓24 홍은점,헬로앨리스마켓24,홍은점,음식,패스트푸드,서울특별시,서대문구,홍은1동,홍은동,서울특별시 서대문구 홍은동 9-305,서울특별시 서대문구 홍은중앙로,서울특별시 서대문구 홍은중앙로 119,120841,3602.0,126.948957604933,37.6011034869643
276,연향 ,연향,,음식,한식,서울특별시,서대문구,천연동,냉천동,서울특별시 서대문구 냉천동 185-4,서울특별시 서대문구 통일로9안길,서울특별시 서대문구 통일로9안길 20-1,120050,3735.0,126.965044337958,37.566357468077
277,101번지남산돈까스 현대백화점신촌점,101번지남산돈까스,현대백화점신촌점,음식,양식,서울특별시,서대문구,신촌동,창천동,서울특별시 서대문구 창천동 30-33,서울특별시 서대문구 신촌로,서울특별시 서대문구 신촌로 83,120706,3789.0,126.935827820491,37.556069154454
278,한우마을생고기 ,한우마을생고기,,음식,한식,서울특별시,서대문구,홍은1동,홍은동,서울특별시 서대문구 홍은동 453-2,서울특별시 서대문구 세검정로1길,서울특별시 서대문구 세검정로1길 35,120761,3615.0,126.943899084582,37.5936338053595
279,호프하우스 ,호프하우스,,음식,유흥주점,서울특별시,서대문구,북가좌2동,북가좌동,서울특별시 서대문구 북가좌동 300-12,서울특별시 서대문구 응암로,서울특별시 서대문구 응암로 72,120130,3683.0,126.911144943979,37.5792890609303
280,해피돈까스 ,해피돈까스,,음식,양식,서울특별시,서대문구,홍제3동,홍제동,서울특별시 서대문구 홍제동 266-41,서울특별시 서대문구 세검정로,서울특별시 서대문구 세검정로 52-10,120857,3624.0,126.946526312883,37.5920174007253
281,가든쿡 명지대점,가든쿡,명지대점,음식,일식/수산물,서울특별시,서대문구,남가좌2동,남가좌동,서울특별시 서대문구 남가좌동 5-167,서울특별시 서대문구 명지대3길,서울특별시 서대문구 명지대3길 8,120800,3672.0,126.923238165075,37.5823013282371
282,비어앤펜슬 ,비어앤펜슬,,음식,유흥주점,서울특별시,서대문구,신촌동,창천동,서울특별시 서대문구 창천동 72-31,서울특별시 서대문구 연세로5다길,서울특별시 서대문구 연세로5다길 41,120834,3787.0,126.933235712924,37.5568837291414
283,백년토종삼계탕추어탕 ,백년토종삼계탕추어탕,,음식,닭/오리요리,서울특별시,서대문구,홍제1동,홍제동,서울특별시 서대문구 홍제동 330-102,서울특별시 서대문구 통일로39나길,서울특별시 서대문구 통일로39나길 2,120859,3637.0,126.943279894903,37.588573455631
284,피자마루 가재울점,피자마루,가재울점,음식,패스트푸드,서울특별시,서대문구,북가좌2동,북가좌동,서울특별시 서대문구 북가좌동 304-50,서울특별시 서대문구 거북골로,서울특별시 서대문구 거북골로 178-1,120130,3691.0,126.910722203303,37.5772217912928
285,해구 ,해구,,음식,유흥주점,서울특별시,서대문구,충현동,합동,서울특별시 서대문구 합동 117,서울특별시 서대문구 서소문로,서울특별시 서대문구 서소문로 37,120030,3741.0,126.965574304378,37.5607756589765
286,명가참치부페 ,명가참치부페,,음식,일식/수산물,서울특별시,서대문구,천연동,현저동,서울특별시 서대문구 현저동 200,서울특별시 서대문구 독립문공원길,서울특별시 서대문구 독립문공원길 17,120796,3733.0,126.955180258127,37.5723706167816
287,여리네닭갈비 ,여리네닭갈비,,음식,닭/오리요리,서울특별시,서대문구,남가좌2동,남가좌동,서울특별시 서대문구 남가좌동 325-16,서울특별시 서대문구 증가로10길,서울특별시 서대문구 증가로10길 36-3,120806,3665.0,126.924330976239,37.5787431920828
288,미요 ,미요,,음식,일식/수산물,서울특별시,서대문구,북가좌2동,북가좌동,서울특별시 서대문구 북가좌동 107-5,서울특별시 서대문구 거북골로,서울특별시 서대문구 거북골로 150,120130,3690.0,126.913180802262,37.5755324866181
289,오십구년옛날통닭 ,오십구년옛날통닭,,음식,유흥주점,서울특별시,서대문구,북가좌2동,북가좌동,서울특별시 서대문구 북가좌동 344-3,서울특별시 서대문구 증가로31길,서울특별시 서대문구 증가로31길 42-8,120814,3678.0,126.909546940874,37.5825090220154
290,빅스 ,빅스,,음식,한식,서울특별시,서대문구,연희동,연희동,서울특별시 서대문구 연희동 132-54,서울특별시 서대문구 연희맛로,서울특별시 서대문구 연희맛로 31,120825,3703.0,126.930442331791,37.5678150850619
291,틸트 ,틸트,,음식,한식,서울특별시,서대문구,신촌동,창천동,서울특별시 서대문구 창천동 52-151,서울특별시 서대문구 연세로11길,서울특별시 서대문구 연세로11길 27,120834,3788.0,126.935278837867,37.5588574277617
292,우리회수산 ,우리회수산,,음식,일식/수산물,서울특별시,서대문구,홍제1동,홍제동,서울특별시 서대문구 홍제동 91-4,서울특별시 서대문구 통일로,서울특별시 서대문구 통일로 379,120090,3730.0,126.948995435748,37.5839210782317
293,이삭토스트 증산역점,이삭토스트,증산역점,음식,패스트푸드,서울특별시,서대문구,북가좌2동,북가좌동,서울특별시 서대문구 북가좌동 342-8,서울특별시 서대문구 증가로,서울특별시 서대문구 증가로 260,120130,3677.0,126.911440413866,37.5838780501949
294,봉쥬비어 ,봉쥬비어,,음식,유흥주점,서울특별시,서대문구,홍은1동,홍은동,서울특별시 서대문구 홍은동 9-132,서울특별시 서대문구 포방터길,서울특별시 서대문구 포방터길 45,120100,3605.0,126.948922999452,37.5987334584993
295,리춘시장 신촌점,리춘시장,신촌점,음식,중식,서울특별시,서대문구,신촌동,창천동,서울특별시 서대문구 창천동 33-13,서울특별시 서대문구 연세로9길,서울특별시 서대문구 연세로9길 10-4,120834,3788.0,126.936435854404,37.558678638088
296,버거킹연세로점 연세로점,버거킹연세로점,연세로점,음식,패스트푸드,서울특별시,서대문구,신촌동,창천동,서울특별시 서대문구 창천동 33-38,서울특별시 서대문구 연세로,서울특별시 서대문구 연세로 25,120834,3788.0,126.936673459346,37.5578878634636
297,아워홈푸드엠파이어몸바이 ,아워홈푸드엠파이어몸바이,,음식,기타음식업,서울특별시,서대문구,신촌동,신촌동,서울특별시 서대문구 신촌동 134,서울특별시 서대문구 연세로,서울특별시 서대문구 연세로 50,120749,3722.0,126.942916817516,37.5638006863037
298,제주수산 ,제주수산,,음식,일식/수산물,서울특별시,서대문구,홍은1동,홍은동,서울특별시 서대문구 홍은동 48-167,서울특별시 서대문구 통일로42길,서울특별시 서대문구 통일로42길 10,120101,3615.0,126.942186678899,37.5922128557965
299,가보족발 서대문점,가보족발,서대문점,음식,한식,서울특별시,서대문구,북가좌2동,북가좌동,서울특별시 서대문구 북가좌동 311-22,서울특별시 서대문구 거북골로20길,서울특별시 서대문구 거북골로20길 53-28,120814,3679.0,126.909888346887,37.5808362521587
300,문상이포차카야505 ,문상이포차카야505,,음식,일식/수산물,서울특별시,서대문구,신촌동,창천동,서울특별시 서대문구 창천동 52-56,서울특별시 서대문구 연세로7안길,서울특별시 서대문구 연세로7안길 17,120834,3788.0,126.935856728753,37.5580156607905
301,연희노가리 ,연희노가리,,음식,유흥주점,서울특별시,서대문구,연희동,연희동,서울특별시 서대문구 연희동 187-61,서울특별시 서대문구 연희로,서울특별시 서대문구 연희로 88,120830,3725.0,126.93037922645,37.5658953027135
302,계림원 자락길점,계림원,자락길점,음식,닭/오리요리,서울특별시,서대문구,홍제1동,홍제동,서울특별시 서대문구 홍제동 156-330,서울특별시 서대문구 모래내로28길,서울특별시 서대문구 모래내로28길 1,120855,3730.0,126.94672663144,37.5858380829969
303,장미맨숀 명지대점,장미맨숀,명지대점,음식,유흥주점,서울특별시,서대문구,홍은2동,홍은동,서울특별시 서대문구 홍은동 401-25,서울특별시 서대문구 거북골로,서울특별시 서대문구 거북골로 12-15,120848,3675.0,126.92545388357,37.5809609564976
304,신촌뼈구이 ,신촌뼈구이,,음식,유흥주점,서울특별시,서대문구,신촌동,창천동,서울특별시 서대문구 창천동 52-47,서울특별시 서대문구 연세로7안길,서울특별시 서대문구 연세로7안길 7,120834,3788.0,126.936173599332,37.5580185164173
305,뜸들이다 서대문점,뜸들이다,서대문점,음식,한식,서울특별시,서대문구,충현동,충정로2가,서울특별시 서대문구 충정로2가 69-32,서울특별시 서대문구 경기대로9길,서울특별시 서대문구 경기대로9길 5,120012,3752.0,126.963462749952,37.5644964590781
306,노브랜드버거 명지대점,노브랜드버거,명지대점,음식,패스트푸드,서울특별시,서대문구,남가좌2동,남가좌동,서울특별시 서대문구 남가좌동 324-34,서울특별시 서대문구 거북골로,서울특별시 서대문구 거북골로 31-1,120806,3665.0,126.924161089868,37.5795345551166
307,던킨도너츠 서대문홍은점,던킨도너츠,서대문홍은점,음식,패스트푸드,서울특별시,서대문구,홍은2동,홍은동,서울특별시 서대문구 홍은동 342-16,서울특별시 서대문구 가좌로,서울특별시 서대문구 가좌로 146,120848,3655.0,126.923776337925,37.5850273615695
308,김밥전통만두 ,김밥전통만두,,음식,분식,서울특별시,서대문구,연희동,연희동,서울특별시 서대문구 연희동 187-99,서울특별시 서대문구 연희로,서울특별시 서대문구 연희로 86,120825,3725.0,126.93016740612,37.5656681238578
309,최대감 ,최대감,,음식,한식,서울특별시,서대문구,신촌동,창천동,서울특별시 서대문구 창천동 4-94,서울특별시 서대문구 신촌역로,서울특별시 서대문구 신촌역로 37,120833,3777.0,126.941287371283,37.5589655238311
310,백채김치찌개 홍제역점,백채김치찌개,홍제역점,음식,한식,서울특별시,서대문구,홍제1동,홍제동,서울특별시 서대문구 홍제동 306-19,서울특별시 서대문구 통일로37길,서울특별시 서대문구 통일로37길 12,120858,3639.0,126.944117688696,37.5877790315785
311,민속주점 ,민속주점,,음식,유흥주점,서울특별시,서대문구,충현동,미근동,서울특별시 서대문구 미근동 31-13,서울특별시 서대문구 통일로,서울특별시 서대문구 통일로 107-29,120020,3739.0,126.966972665831,37.564428109292
312,뚜띠쿠치나 서대문점,뚜띠쿠치나,서대문점,음식,양식,서울특별시,서대문구,충현동,미근동,서울특별시 서대문구 미근동 332,서울특별시 서대문구 충정로,서울특별시 서대문구 충정로 70,120020,3738.0,126.966345451568,37.5647650148978
313,미타우동 ,미타우동,,음식,분식,서울특별시,서대문구,홍제3동,홍제동,서울특별시 서대문구 홍제동 287-216,서울특별시 서대문구 간호대로3길,서울특별시 서대문구 간호대로3길 24-8,120863,3619.0,126.947014166218,37.5959682877139
314,샤브향 ,샤브향,,음식,별식/퓨전요리,서울특별시,서대문구,연희동,연희동,서울특별시 서대문구 연희동 717-29,서울특별시 서대문구 홍연길,서울특별시 서대문구 홍연길 77,120827,3695.0,126.930596984025,37.5767908150957
315,청호엄마맛도시락 ,청호엄마맛도시락,,음식,패스트푸드,서울특별시,서대문구,천연동,천연동,서울특별시 서대문구 천연동 4,서울특별시 서대문구 통일로,서울특별시 서대문구 통일로 173-4,120040,3734.0,126.962876673999,37.5692127629465
316,짚불집 ,짚불집,,음식,한식,서울특별시,서대문구,연희동,연희동,서울특별시 서대문구 연희동 287-5,서울특별시 서대문구 연희로8길,서울특별시 서대문구 연희로8길 5-3,120830,3725.0,126.930460255688,37.5657698915208
317,연희동백암왕순대 ,연희동백암왕순대,,음식,별식/퓨전요리,서울특별시,서대문구,연희동,연희동,서울특별시 서대문구 연희동 122-18,서울특별시 서대문구 증가로,서울특별시 서대문구 증가로 13-6,120825,3703.0,126.931031243445,37.5693792142273
318,태화장 ,태화장,,음식,한식,서울특별시,서대문구,홍은2동,홍은동,서울특별시 서대문구 홍은동 421-16,서울특별시 서대문구 명지대길,서울특별시 서대문구 명지대길 30,120100,3675.0,126.924729694683,37.5817202416989
319,블랙버드 ,블랙버드,,음식,양식,서울특별시,서대문구,홍제1동,홍제동,서울특별시 서대문구 홍제동 330-238,서울특별시 서대문구 통일로39나길,서울특별시 서대문구 통일로39나길 1,120090,3637.0,126.943451245016,37.5884668653178
320,광주식당 ,광주식당,,음식,한식,서울특별시,서대문구,충현동,북아현동,서울특별시 서대문구 북아현동 1-308,서울특별시 서대문구 북아현로,서울특별시 서대문구 북아현로 88,120865,3748.0,126.953388340855,37.5645157011139
321,제육대가 ,제육대가,,음식,한식,서울특별시,서대문구,남가좌2동,남가좌동,서울특별시 서대문구 남가좌동 3-88,서울특별시 서대문구 명지대7길,서울특별시 서대문구 명지대7길 22,120800,3672.0,126.922024966992,37.5839932106596
322,부페레스트런트 ,부페레스트런트,,음식,부페,서울특별시,서대문구,홍은2동,홍은동,서울특별시 서대문구 홍은동 201-1,서울특별시 서대문구 연희로,서울특별시 서대문구 연희로 353,120710,3650.0,126.935000611491,37.5895262212225
323,가마마루이라멘 ,가마마루이라멘,,음식,분식,서울특별시,서대문구,신촌동,창천동,서울특별시 서대문구 창천동 91-6,서울특별시 서대문구 성산로22길,서울특별시 서대문구 성산로22길 4,120835,3727.0,126.93330997795,37.560407463722
324,건륭산시도삭면 ,건륭산시도삭면,,음식,중식,서울특별시,서대문구,신촌동,창천동,서울특별시 서대문구 창천동 31-86,서울특별시 서대문구 명물길,서울특별시 서대문구 명물길 33,120834,3776.0,126.938205511726,37.5583972236137
325,부안식당 ,부안식당,,음식,한식,서울특별시,서대문구,남가좌2동,남가좌동,서울특별시 서대문구 남가좌동 8-14,서울특별시 서대문구 명지대길,서울특별시 서대문구 명지대길 68-1,120120,3675.0,126.923464477557,37.5830963032616
326,지영이네 ,지영이네,,음식,한식,서울특별시,서대문구,홍은1동,홍은동,서울특별시 서대문구 홍은동 9-111,서울특별시 서대문구 홍은중앙로8길,서울특별시 서대문구 홍은중앙로8길 5,120100,3605.0,126.94786666051,37.5989583150401
327,군자대한곱창 신촌점,군자대한곱창,신촌점,음식,한식,서울특별시,서대문구,신촌동,창천동,서울특별시 서대문구 창천동 57-23,서울특별시 서대문구 연세로5나길,서울특별시 서대문구 연세로5나길 8,120834,3789.0,126.935801769372,37.5571051153843
328,포방돈카 ,포방돈카,,음식,양식,서울특별시,서대문구,홍은1동,홍은동,서울특별시 서대문구 홍은동 9-123,서울특별시 서대문구 포방터길,서울특별시 서대문구 포방터길 43,120841,3605.0,126.948878721352,37.5986609813934
329,현명식탁 ,현명식탁,,음식,양식,서울특별시,서대문구,신촌동,창천동,서울특별시 서대문구 창천동 13-2,서울특별시 서대문구 명물길,서울특별시 서대문구 명물길 32,120833,3777.0,126.938425772916,37.5580297780237
330,아건 ,아건,,음식,별식/퓨전요리,서울특별시,서대문구,신촌동,대현동,서울특별시 서대문구 대현동 56-51,서울특별시 서대문구 이화여대길,서울특별시 서대문구 이화여대길 63,120808,3766.0,126.944908042073,37.5590519986336
331,60계치킨홍제 홍은점,60계치킨홍제,홍은점,음식,닭/오리요리,서울특별시,서대문구,홍제3동,홍제동,서울특별시 서대문구 홍제동 266-24,서울특별시 서대문구 세무서길,서울특별시 서대문구 세무서길 73,120857,3624.0,126.946617503579,37.5911712413649
332,피카소 ,피카소,,음식,유흥주점,서울특별시,서대문구,남가좌1동,남가좌동,서울특별시 서대문구 남가좌동 295-5,서울특별시 서대문구 수색로,서울특별시 서대문구 수색로 42,120120,3712.0,126.914239754489,37.5704333591557
333,7번가피자 신촌마포점,7번가피자,신촌마포점,음식,한식,서울특별시,서대문구,신촌동,창천동,서울특별시 서대문구 창천동 502-10,서울특별시 서대문구 신촌로,서울특별시 서대문구 신촌로 39,120836,3785.0,126.93098704234,37.5574220344258
334,안동명가 ,안동명가,,음식,한식,서울특별시,서대문구,북가좌1동,북가좌동,서울특별시 서대문구 북가좌동 392-26,서울특별시 서대문구 수색로,서울특별시 서대문구 수색로 127,120817,3715.0,126.905855633772,37.5740231615885
335,호남기사식당 ,호남기사식당,,음식,한식,서울특별시,서대문구,충현동,북아현동,서울특별시 서대문구 북아현동 1-518,서울특별시 서대문구 북아현로,서울특별시 서대문구 북아현로 70,120866,3748.0,126.954898408414,37.5633757473231
336,우리동네 ,우리동네,,음식,한식,서울특별시,서대문구,북가좌2동,북가좌동,서울특별시 서대문구 북가좌동 307-34,서울특별시 서대문구 응암로,서울특별시 서대문구 응암로 61,120814,3681.0,126.910144824327,37.5787752518167
337,스시히바리 ,스시히바리,,음식,일식/수산물,서울특별시,서대문구,신촌동,대현동,서울특별시 서대문구 대현동 45-5,서울특별시 서대문구 신촌로,서울특별시 서대문구 신촌로 189,120808,3767.0,126.946960538536,37.5571691281343
338,문화촌초밥집 ,문화촌초밥집,,음식,일식/수산물,서울특별시,서대문구,홍제3동,홍제동,서울특별시 서대문구 홍제동 266-21,서울특별시 서대문구 세무서7길,서울특별시 서대문구 세무서7길 12-6,120857,3624.0,126.946520578853,37.5916208939919
339,조은예감 ,조은예감,,음식,유흥주점,서울특별시,서대문구,북가좌2동,북가좌동,서울특별시 서대문구 북가좌동 292-11,서울특별시 서대문구 응암로,서울특별시 서대문구 응암로 104,120130,3682.0,126.913000007894,37.5817389514143
340,부엌2호 ,부엌2호,,음식,한식,서울특별시,서대문구,충현동,북아현동,서울특별시 서대문구 북아현동 190-1,서울특별시 서대문구 북아현로11가길,서울특별시 서대문구 북아현로11가길 7,120763,3762.0,126.954041287563,37.5631519069777
341,백채김치찌개 명지대점,백채김치찌개,명지대점,음식,한식,서울특별시,서대문구,남가좌2동,남가좌동,서울특별시 서대문구 남가좌동 338-1,서울특별시 서대문구 증가로,서울특별시 서대문구 증가로 123,120806,3692.0,126.923741877223,37.5771970513211
342,행운포차 ,행운포차,,음식,유흥주점,서울특별시,서대문구,홍제1동,홍제동,서울특별시 서대문구 홍제동 330-76,서울특별시 서대문구 통일로39가길,서울특별시 서대문구 통일로39가길 10-2,120090,3636.0,126.943585446938,37.5885852011751
343,수원갈비 ,수원갈비,,음식,한식,서울특별시,서대문구,남가좌1동,남가좌동,서울특별시 서대문구 남가좌동 102-19,서울특별시 서대문구 수색로2길,서울특별시 서대문구 수색로2길 14,120120,3712.0,126.916246450784,37.5694426380205
344,든든김밥 서대문구본점,든든김밥,서대문구본점,음식,분식,서울특별시,서대문구,남가좌1동,남가좌동,서울특별시 서대문구 남가좌동 385,서울특별시 서대문구 가재울미래로,서울특별시 서대문구 가재울미래로 2,120121,3711.0,126.917827900867,37.5743677926814
345,정통꼬리막창 ,정통꼬리막창,,음식,한식,서울특별시,서대문구,신촌동,창천동,서울특별시 서대문구 창천동 52-128,서울특별시 서대문구 연세로9길,서울특별시 서대문구 연세로9길 17,120834,3788.0,126.935839261677,37.5584480023296
346,본죽&비빔밥CAFE 연세암병원점,본죽&비빔밥CAFE,연세암병원점,음식,한식,서울특별시,서대문구,신촌동,신촌동,서울특별시 서대문구 신촌동 134,서울특별시 서대문구 연세로,서울특별시 서대문구 연세로 50,120749,3722.0,126.942916817516,37.5638006863037
347,207파스타 ,207파스타,,음식,한식,서울특별시,서대문구,북가좌2동,북가좌동,서울특별시 서대문구 북가좌동 290-15,서울특별시 서대문구 증가로,서울특별시 서대문구 증가로 207,120812,3685.0,126.915373193656,37.5804813130096
348,바다양푼이동태탕 북가좌점,바다양푼이동태탕,북가좌점,음식,일식/수산물,서울특별시,서대문구,북가좌2동,북가좌동,서울특별시 서대문구 북가좌동 300-14,서울특별시 서대문구 응암로,서울특별시 서대문구 응암로 78,120813,3683.0,126.911511025647,37.5798060269393
349,청와면옥함흥냉면숯불갈비 ,청와면옥함흥냉면숯불갈비,,음식,한식,서울특별시,서대문구,북가좌2동,북가좌동,서울특별시 서대문구 북가좌동 308-2,서울특별시 서대문구 응암로,서울특별시 서대문구 응암로 75,120130,3679.0,126.910898432722,37.5798904798237
350,풍미 ,풍미,,음식,한식,서울특별시,서대문구,홍제2동,홍제동,서울특별시 서대문구 홍제동 19-18,서울특별시 서대문구 통일로28길,서울특별시 서대문구 통일로28길 5,120090,3633.0,126.950117964036,37.583804922855
351,치킨로하스 ,치킨로하스,,음식,닭/오리요리,서울특별시,서대문구,북가좌2동,북가좌동,서울특별시 서대문구 북가좌동 294-16,서울특별시 서대문구 응암로,서울특별시 서대문구 응암로 90,120130,3682.0,126.912289664334,37.5807592906957
352,리노호프치킨 ,리노호프치킨,,음식,유흥주점,서울특별시,서대문구,신촌동,대신동,서울특별시 서대문구 대신동 90-4,서울특별시 서대문구 성산로,서울특별시 서대문구 성산로 541,120160,3721.0,126.945044938804,37.5645946160872
353,드럼통숯불구이 ,드럼통숯불구이,,음식,한식,서울특별시,서대문구,연희동,연희동,서울특별시 서대문구 연희동 148-8,서울특별시 서대문구 연희로,서울특별시 서대문구 연희로 213,120827,3696.0,126.935158640561,37.5760481509336
354,배스킨라빈스 ,배스킨라빈스,,음식,패스트푸드,서울특별시,서대문구,연희동,연희동,서울특별시 서대문구 연희동 131-1,서울특별시 서대문구 연희맛로,서울특별시 서대문구 연희맛로 23,120825,3707.0,126.929648274982,37.5671411203509
355,연세대부를샘매점 ,연세대부를샘매점,,음식,분식,서울특별시,서대문구,신촌동,신촌동,서울특별시 서대문구 신촌동 134,서울특별시 서대문구 연세로,서울특별시 서대문구 연세로 50,120749,3722.0,126.942916817516,37.5638006863037
356,도미노피자 연희점,도미노피자,연희점,음식,패스트푸드,서울특별시,서대문구,연희동,연희동,서울특별시 서대문구 연희동 188-3,서울특별시 서대문구 연희로,서울특별시 서대문구 연희로 95,120825,3708.0,126.930414450343,37.5665984314368
357,현대떡볶이 ,현대떡볶이,,음식,분식,서울특별시,서대문구,천연동,영천동,서울특별시 서대문구 영천동 323,서울특별시 서대문구 통일로,서울특별시 서대문구 통일로 189-1,120040,3734.0,126.961831175302,37.5703208626069
358,반서울 ,반서울,,음식,별식/퓨전요리,서울특별시,서대문구,신촌동,대현동,서울특별시 서대문구 대현동 27-4,서울특별시 서대문구 이화여대길,서울특별시 서대문구 이화여대길 87,120808,3766.0,126.943516942526,37.5589764857832
359,섬 ,섬,,음식,한식,서울특별시,서대문구,신촌동,대신동,서울특별시 서대문구 대신동 111-12,서울특별시 서대문구 성산로,서울특별시 서대문구 성산로 553,120160,3721.0,126.945801728502,37.565511426002
360,바나프레소 이대점,바나프레소,이대점,음식,한식,서울특별시,서대문구,신촌동,대현동,서울특별시 서대문구 대현동 56-74,서울특별시 서대문구 이화여대길,서울특별시 서대문구 이화여대길 33,120808,3766.0,126.945606885088,37.558454544993
361,그럼에도불구하고 ,그럼에도불구하고,,음식,한식,서울특별시,서대문구,신촌동,대현동,서울특별시 서대문구 대현동 110-52,서울특별시 서대문구 연세로2마길,서울특별시 서대문구 연세로2마길 19,120809,3778.0,126.942002272154,37.5580348508943
362,트라토리아프레스카 ,트라토리아프레스카,,음식,양식,서울특별시,서대문구,연희동,연희동,서울특별시 서대문구 연희동 80-1,서울특별시 서대문구 연희로,서울특별시 서대문구 연희로 160,120829,3723.0,126.93493003064,37.5714327782162
363,청년국물떡볶이 가재울뉴타운점,청년국물떡볶이,가재울뉴타운점,음식,분식,서울특별시,서대문구,남가좌1동,남가좌동,서울특별시 서대문구 남가좌동 385,서울특별시 서대문구 가재울미래로,서울특별시 서대문구 가재울미래로 2,120121,3711.0,126.917827900867,37.5743677926814
364,배스킨라빈스31 연희사러가점,배스킨라빈스31,연희사러가점,음식,패스트푸드,서울특별시,서대문구,연희동,연희동,서울특별시 서대문구 연희동 131-1,서울특별시 서대문구 연희맛로,서울특별시 서대문구 연희맛로 23,120825,3707.0,126.929648274982,37.5671411203509
365,모돌이네 ,모돌이네,,음식,한식,서울특별시,서대문구,북아현동,북아현동,서울특별시 서대문구 북아현동 134-5,서울특별시 서대문구 북아현로2안길,서울특별시 서대문구 북아현로2안길 8,120819,3757.0,126.956793921016,37.5581304341146
366,함평한우 ,함평한우,,음식,한식,서울특별시,서대문구,신촌동,창천동,서울특별시 서대문구 창천동 502-11,서울특별시 서대문구 신촌로,서울특별시 서대문구 신촌로 37,120836,3785.0,126.930758648568,37.5575641324914
367,영이호프 ,영이호프,,음식,유흥주점,서울특별시,서대문구,홍은2동,홍은동,서울특별시 서대문구 홍은동 409-47,서울특별시 서대문구 거북골로,서울특별시 서대문구 거북골로 19-1,120100,3662.0,126.925147667323,37.5802103091218
368,스시원 ,스시원,,음식,한식,서울특별시,서대문구,북가좌1동,북가좌동,서울특별시 서대문구 북가좌동 470,서울특별시 서대문구 수색로,서울특별시 서대문구 수색로 100,120131,3709.0,126.907804499286,37.5746809440599
369,루프탑연희 ,루프탑연희,,음식,유흥주점,서울특별시,서대문구,연희동,연희동,서울특별시 서대문구 연희동 188-2,서울특별시 서대문구 연희로,서울특별시 서대문구 연희로 97,120825,3708.0,126.930502161135,37.566797454407
370,어라우즈 ,어라우즈,,음식,양식,서울특별시,서대문구,홍은2동,홍은동,서울특별시 서대문구 홍은동 413-45,서울특별시 서대문구 증가로6길,서울특별시 서대문구 증가로6길 34-25,120848,3664.0,126.926509634606,37.577609699494
371,달팽이가사랑에빠진날 ,달팽이가사랑에빠진날,,음식,유흥주점,서울특별시,서대문구,신촌동,대현동,서울특별시 서대문구 대현동 37-69,서울특별시 서대문구 이화여대5길,서울특별시 서대문구 이화여대5길 28,120808,3766.0,126.944056850692,37.5584136606572
372,진솔한식 ,진솔한식,,음식,한식,서울특별시,서대문구,신촌동,대현동,서울특별시 서대문구 대현동 104-39,서울특별시 서대문구 연세로2다길,서울특별시 서대문구 연세로2다길 56,120809,3778.0,126.941232119241,37.5572710732293
373,이태원포장마차 명지대점,이태원포장마차,명지대점,음식,유흥주점,서울특별시,서대문구,홍은2동,홍은동,서울특별시 서대문구 홍은동 401-17,서울특별시 서대문구 명지대길,서울특별시 서대문구 명지대길 6,120848,3675.0,126.925107101106,37.5806694677881
374,윤끼 ,윤끼,,음식,한식,서울특별시,서대문구,신촌동,대현동,서울특별시 서대문구 대현동 56-53,서울특별시 서대문구 이화여대길,서울특별시 서대문구 이화여대길 65-3,120808,3766.0,126.944920883564,37.5589439885808
375,화송순대국 ,화송순대국,,음식,별식/퓨전요리,서울특별시,서대문구,북가좌2동,북가좌동,서울특별시 서대문구 북가좌동 327-2,서울특별시 서대문구 응암로,서울특별시 서대문구 응암로 105,120130,3678.0,126.912777584934,37.5822414820996
376,예천식당 ,예천식당,,음식,한식,서울특별시,서대문구,남가좌1동,남가좌동,서울특별시 서대문구 남가좌동 289-55,서울특별시 서대문구 수색로4나길,서울특별시 서대문구 수색로4나길 13,120120,3712.0,126.91465901009,37.5711850744312
377,유가네통닭 ,유가네통닭,,음식,한식,서울특별시,서대문구,홍제3동,홍제동,서울특별시 서대문구 홍제동 298-9,서울특별시 서대문구 인왕시장길,서울특별시 서대문구 인왕시장길 16,120090,3628.0,126.942837278833,37.5910473393645
378,더치킨맨 ,더치킨맨,,음식,닭/오리요리,서울특별시,서대문구,홍제2동,홍제동,서울특별시 서대문구 홍제동 24-5,서울특별시 서대문구 통일로,서울특별시 서대문구 통일로 364,120854,3635.0,126.950346846948,37.5828248282336
379,루나밍 ,루나밍,,음식,유흥주점,서울특별시,서대문구,신촌동,창천동,서울특별시 서대문구 창천동 496,서울특별시 서대문구 연희로,서울특별시 서대문구 연희로 18,120836,3784.0,126.926836056069,37.5603848353228
380,대박나라 ,대박나라,,음식,한식,서울특별시,서대문구,충현동,북아현동,서울특별시 서대문구 북아현동 3-347,서울특별시 서대문구 북아현로14길,서울특별시 서대문구 북아현로14길 17,120818,3749.0,126.956410070649,37.562929588941
381,기쁨이네 ,기쁨이네,,음식,유흥주점,서울특별시,서대문구,남가좌2동,남가좌동,서울특별시 서대문구 남가좌동 345-4,서울특별시 서대문구 가재울로6길,서울특별시 서대문구 가재울로6길 53-87,120120,3692.0,126.923088061717,37.577001870807
382,자연갈비 남가좌점,자연갈비,남가좌점,음식,한식,서울특별시,서대문구,남가좌2동,남가좌동,서울특별시 서대문구 남가좌동 338-5,서울특별시 서대문구 증가로,서울특별시 서대문구 증가로 117-1,120806,3692.0,126.924253595169,37.5770395293711
383,공원숯불갈비 ,공원숯불갈비,,음식,한식,서울특별시,서대문구,홍제3동,홍제동,서울특별시 서대문구 홍제동 280-5,서울특별시 서대문구 세검정로4길,서울특별시 서대문구 세검정로4길 13,120090,3620.0,126.949096038549,37.5944821150574
384,햄버거파파 ,햄버거파파,,음식,패스트푸드,서울특별시,서대문구,연희동,연희동,서울특별시 서대문구 연희동 30-9,서울특별시 서대문구 연희로10길,서울특별시 서대문구 연희로10길 75,120823,3725.0,126.933270041311,37.5640022474949
385,띵스체인지 ,띵스체인지,,음식,한식,서울특별시,서대문구,충현동,충정로3가,서울특별시 서대문구 충정로3가 183-1,서울특별시 서대문구 경기대로,서울특별시 서대문구 경기대로 38,120838,3737.0,126.962104967276,37.5628266151229
386,아이스크림에빠진날 ,아이스크림에빠진날,,음식,패스트푸드,서울특별시,서대문구,북가좌1동,북가좌동,서울특별시 서대문구 북가좌동 481,서울특별시 서대문구 수색로,서울특별시 서대문구 수색로 100,120725,3709.0,126.911744028621,37.5731315061
387,돈까스전문점하늘정원 ,돈까스전문점하늘정원,,음식,양식,서울특별시,서대문구,남가좌2동,남가좌동,서울특별시 서대문구 남가좌동 344-2,서울특별시 서대문구 거북골로,서울특별시 서대문구 거북골로 53-6,120120,3665.0,126.922538902646,37.5781862265671
388,독박골맛있는집 ,독박골맛있는집,,음식,한식,서울특별시,서대문구,충현동,합동,서울특별시 서대문구 합동 10-1,서울특별시 서대문구 서소문로,서울특별시 서대문구 서소문로 61-7,120030,3741.0,126.967877703906,37.5620032138995
389,도넛게임즈 ,도넛게임즈,,음식,패스트푸드,서울특별시,서대문구,남가좌1동,남가좌동,서울특별시 서대문구 남가좌동 385,서울특별시 서대문구 가재울미래로,서울특별시 서대문구 가재울미래로 2,120121,3711.0,126.917815017131,37.5744757988607
390,엄마분식 ,엄마분식,,음식,분식,서울특별시,서대문구,홍은1동,홍은동,서울특별시 서대문구 홍은동 9-86,서울특별시 서대문구 홍은중앙로,서울특별시 서대문구 홍은중앙로 100-1,120100,3605.0,126.948619346204,37.5993885089278
391,족발야시장 홍제점,족발야시장,홍제점,음식,한식,서울특별시,서대문구,홍제1동,홍제동,서울특별시 서대문구 홍제동 326-38,서울특별시 서대문구 통일로,서울특별시 서대문구 통일로 477-1,120859,3636.0,126.941733607999,37.5906229725992
392,유닭스토리 신촌점,유닭스토리,신촌점,음식,한식,서울특별시,서대문구,신촌동,창천동,서울특별시 서대문구 창천동 18-72,서울특별시 서대문구 연세로4길,서울특별시 서대문구 연세로4길 7,120833,3777.0,126.937364109772,37.5570741355195
393,히세드댓 ,히세드댓,,음식,유흥주점,서울특별시,서대문구,연희동,연희동,서울특별시 서대문구 연희동 187-57,서울특별시 서대문구 연희로,서울특별시 서대문구 연희로 94,120830,3725.0,126.93074628071,37.5663491467771
394,돈까스가땡길때 ,돈까스가땡길때,,음식,양식,서울특별시,서대문구,충현동,미근동,서울특별시 서대문구 미근동 82-3,서울특별시 서대문구 충정로6안길,서울특별시 서대문구 충정로6안길 5,120020,3740.0,126.96746181782,37.5626122854224
395,진미 본점,진미,본점,음식,중식,서울특별시,서대문구,연희동,연희동,서울특별시 서대문구 연희동 137-4,서울특별시 서대문구 연희맛로,서울특별시 서대문구 연희맛로 36,120825,3708.0,126.931063034105,37.5679468522713
396,다이닝후 ,다이닝후,,음식,별식/퓨전요리,서울특별시,서대문구,충현동,충정로3가,서울특별시 서대문구 충정로3가 190-19,서울특별시 서대문구 충정로,서울특별시 서대문구 충정로 43-1,120839,3737.0,126.964130698946,37.562853417012
397,나고야살롱 ,나고야살롱,,음식,한식,서울특별시,서대문구,남가좌2동,남가좌동,서울특별시 서대문구 남가좌동 326-3,서울특별시 서대문구 증가로8길,서울특별시 서대문구 증가로8길 42-8,120120,3666.0,126.925751918352,37.5783416556791
398,호남보신탕 ,호남보신탕,,음식,별식/퓨전요리,서울특별시,서대문구,북아현동,북아현동,서울특별시 서대문구 북아현동 125-25,서울특별시 서대문구 북아현로2안길,서울특별시 서대문구 북아현로2안길 5,120819,3757.0,126.957063642982,37.558267973223
399,이레김밥 ,이레김밥,,음식,분식,서울특별시,서대문구,홍은1동,홍은동,서울특별시 서대문구 홍은동 9-133,서울특별시 서대문구 포방터길,서울특별시 서대문구 포방터길 47,120100,3605.0,126.9490003596,37.5988693026119
400,서울곱도리상회 ,서울곱도리상회,,음식,한식,서울특별시,서대문구,천연동,냉천동,서울특별시 서대문구 냉천동 248,서울특별시 서대문구 통일로,서울특별시 서대문구 통일로 141,120040,3735.0,126.965217701593,37.5669176328747
401,센트그릴 ,센트그릴,,음식,양식,서울특별시,서대문구,연희동,연희동,서울특별시 서대문구 연희동 188-87,서울특별시 서대문구 연희로,서울특별시 서대문구 연희로 89-3,120825,3708.0,126.929877111192,37.5661790844322
402,해바라기포차 ,해바라기포차,,음식,유흥주점,서울특별시,서대문구,연희동,연희동,서울특별시 서대문구 연희동 188-66,서울특별시 서대문구 연희로,서울특별시 서대문구 연희로 93-7,120825,3708.0,126.929972400738,37.5666394774756
403,접시고기 ,접시고기,,음식,한식,서울특별시,서대문구,북가좌2동,북가좌동,서울특별시 서대문구 북가좌동 327-2,서울특별시 서대문구 응암로,서울특별시 서대문구 응암로 105,120814,3678.0,126.912777584934,37.5822414820996
404,마포갈매기 홍제역점,마포갈매기,홍제역점,음식,한식,서울특별시,서대문구,홍은2동,홍은동,서울특별시 서대문구 홍은동 93-3,서울특별시 서대문구 통일로,서울특별시 서대문구 통일로 493,120100,3647.0,126.940866345905,37.5918946630846
405,강고집 ,강고집,,음식,한식,서울특별시,서대문구,남가좌2동,남가좌동,서울특별시 서대문구 남가좌동 338-5,서울특별시 서대문구 증가로,서울특별시 서대문구 증가로 117-1,120120,3692.0,126.924253595169,37.5770395293711
406,공릉닭한마리 ,공릉닭한마리,,음식,닭/오리요리,서울특별시,서대문구,신촌동,대현동,서울특별시 서대문구 대현동 104-39,서울특별시 서대문구 연세로2다길,서울특별시 서대문구 연세로2다길 56,120809,3778.0,126.941232119241,37.5572710732293
407,이모네식당 ,이모네식당,,음식,한식,서울특별시,서대문구,충현동,충정로3가,서울특별시 서대문구 충정로3가 30-11,서울특별시 서대문구 경기대로,서울특별시 서대문구 경기대로 25,120837,3751.0,126.961655949592,37.5617414177713
408,교촌치킨신촌점 신촌점,교촌치킨신촌점,신촌점,음식,닭/오리요리,서울특별시,서대문구,신촌동,창천동,서울특별시 서대문구 창천동 41-14,서울특별시 서대문구 명물길,서울특별시 서대문구 명물길 21,120834,3776.0,126.937619848637,37.5581937263095
409,폼프리츠충정로점 충정로점,폼프리츠충정로점,충정로점,음식,한식,서울특별시,서대문구,충현동,충정로3가,서울특별시 서대문구 충정로3가 465,서울특별시 서대문구 서소문로,서울특별시 서대문구 서소문로 27,120013,3741.0,126.964845533717,37.5602736986601
410,참참참분식 ,참참참분식,,음식,분식,서울특별시,서대문구,신촌동,대현동,서울특별시 서대문구 대현동 34-23,서울특별시 서대문구 이화여대길,서울특별시 서대문구 이화여대길 52-31,120808,3765.0,126.944721379249,37.559446787958
411,아빠네야채칼국수 ,아빠네야채칼국수,,음식,분식,서울특별시,서대문구,신촌동,대현동,서울특별시 서대문구 대현동 54-11,서울특별시 서대문구 이화여대길,서울특별시 서대문구 이화여대길 24,120808,3767.0,126.945954387891,37.5578899925462
412,지코바홍 제1호점,지코바홍,제1호점,음식,닭/오리요리,서울특별시,서대문구,홍제3동,홍제동,서울특별시 서대문구 홍제동 266-258,서울특별시 서대문구 세검정로,서울특별시 서대문구 세검정로 39,120857,3623.0,126.945550715114,37.5921438440938
413,마룬여유 ,마룬여유,,음식,유흥주점,서울특별시,서대문구,연희동,연희동,서울특별시 서대문구 연희동 75-3,서울특별시 서대문구 연희로26가길,서울특별시 서대문구 연희로26가길 14,120823,3720.0,126.936585535731,37.5736282136842
414,소반 ,소반,,음식,한식,서울특별시,서대문구,충현동,충정로3가,서울특별시 서대문구 충정로3가 465,서울특별시 서대문구 서소문로,서울특별시 서대문구 서소문로 27,120013,3741.0,126.964845533717,37.5602736986601
415,고미정 ,고미정,,음식,한식,서울특별시,서대문구,연희동,연희동,서울특별시 서대문구 연희동 79-4,서울특별시 서대문구 연희로26길,서울특별시 서대문구 연희로26길 24,120829,3723.0,126.936869747357,37.572747756997
416,옛날왕솥뚜껑생삼겹살 ,옛날왕솥뚜껑생삼겹살,,음식,한식,서울특별시,서대문구,홍제1동,홍제동,서울특별시 서대문구 홍제동 330-117,서울특별시 서대문구 통일로39길,서울특별시 서대문구 통일로39길 22-58,120859,3637.0,126.94161940284,37.5898921100359
417,인왕족발 ,인왕족발,,음식,한식,서울특별시,서대문구,홍제3동,홍제동,서울특별시 서대문구 홍제동 298-7,서울특별시 서대문구 통일로40안길,서울특별시 서대문구 통일로40안길 3-10,120857,3628.0,126.943470919347,37.5910800441591
418,연희복집 ,연희복집,,음식,일식/수산물,서울특별시,서대문구,연희동,연희동,서울특별시 서대문구 연희동 81-16,서울특별시 서대문구 연희로,서울특별시 서대문구 연희로 157,120824,3699.0,126.934184014988,37.5713539621094
419,커피잼 ,커피잼,,음식,유흥주점,서울특별시,서대문구,북가좌2동,북가좌동,서울특별시 서대문구 북가좌동 344-9,서울특별시 서대문구 불광천길,서울특별시 서대문구 불광천길 170,120130,3678.0,126.909659356629,37.582564122525
420,이디야커피 충정로3가점,이디야커피,충정로3가점,음식,한식,서울특별시,서대문구,충현동,충정로3가,서울특별시 서대문구 충정로3가 480,서울특별시 서대문구 경기대로,서울특별시 서대문구 경기대로 26-26,120013,3737.0,126.962175358464,37.5610161416097
421,본도시락신촌 ,본도시락신촌,,음식,패스트푸드,서울특별시,서대문구,신촌동,창천동,서울특별시 서대문구 창천동 53-28,서울특별시 서대문구 연세로7안길,서울특별시 서대문구 연세로7안길 45,120834,3787.0,126.934235218048,37.5582262943363
422,유우 ,유우,,음식,일식/수산물,서울특별시,서대문구,연희동,연희동,서울특별시 서대문구 연희동 75-18,서울특별시 서대문구 연희로26길,서울특별시 서대문구 연희로26길 23,120823,3720.0,126.93694565093,37.5729827102913
423,영천떡볶이야 ,영천떡볶이야,,음식,분식,서울특별시,서대문구,천연동,영천동,서울특별시 서대문구 영천동 69-64,서울특별시 서대문구 영천시장길,서울특별시 서대문구 영천시장길 22,120040,3734.0,126.96056552761,37.5709764946643
424,피자헛연희2호점 연희2호점,피자헛연희2호점,연희2호점,음식,패스트푸드,서울특별시,서대문구,연희동,연희동,서울특별시 서대문구 연희동 79-31,서울특별시 서대문구 연희로,서울특별시 서대문구 연희로 166,120829,3723.0,126.935139829108,37.5718040962598
425,유에이치 ,유에이치,,음식,한식,서울특별시,서대문구,신촌동,대현동,서울특별시 서대문구 대현동 136-10,서울특별시 서대문구 이화여대길,서울특별시 서대문구 이화여대길 86,120809,3765.0,126.943660756237,37.5592120430103
426,통불 ,통불,,음식,한식,서울특별시,서대문구,홍은2동,홍은동,서울특별시 서대문구 홍은동 398-11,서울특별시 서대문구 가좌로,서울특별시 서대문구 가좌로 100,120848,3659.0,126.92692519736,37.5817852730928
427,상경 ,상경,,음식,한식,서울특별시,서대문구,신촌동,대현동,서울특별시 서대문구 대현동 54-6,서울특별시 서대문구 이화여대2가길,서울특별시 서대문구 이화여대2가길 17,120808,3767.0,126.9460526861,37.5581431613815
428,1996크리스터 ,1996크리스터,,음식,유흥주점,서울특별시,서대문구,신촌동,창천동,서울특별시 서대문구 창천동 52-14,서울특별시 서대문구 연세로11길,서울특별시 서대문구 연세로11길 30,120834,3788.0,126.935152171946,37.5590094620801
429,맥도날드연세대점 연세대점,맥도날드연세대점,연세대점,음식,패스트푸드,서울특별시,서대문구,신촌동,창천동,서울특별시 서대문구 창천동 33-12,서울특별시 서대문구 연세로,서울특별시 서대문구 연세로 33,120834,3788.0,126.936708868523,37.5585819828585
430,명동그집 ,명동그집,,음식,한식,서울특별시,서대문구,충현동,충정로3가,서울특별시 서대문구 충정로3가 465,서울특별시 서대문구 서소문로,서울특별시 서대문구 서소문로 27,120013,3741.0,126.964845533717,37.5602736986601
431,투다리 이대점,투다리,이대점,음식,유흥주점,서울특별시,서대문구,신촌동,대현동,서울특별시 서대문구 대현동 104-36,서울특별시 서대문구 신촌로,서울특별시 서대문구 신촌로 149,120809,3780.0,126.942482942316,37.5568587947185
432,비어시티 ,비어시티,,음식,유흥주점,서울특별시,서대문구,남가좌2동,남가좌동,서울특별시 서대문구 남가좌동 339-34,서울특별시 서대문구 증가로,서울특별시 서대문구 증가로 116,120120,3666.0,126.924773521408,37.5770983285699
433,샐러디 명지대점,샐러디,명지대점,음식,패스트푸드,서울특별시,서대문구,남가좌2동,남가좌동,서울특별시 서대문구 남가좌동 324-35,서울특별시 서대문구 거북골로,서울특별시 서대문구 거북골로 33,120806,3665.0,126.924049056536,37.5794524407773
434,어바웃샤브 서대문점,어바웃샤브,서대문점,음식,별식/퓨전요리,서울특별시,서대문구,충현동,충정로2가,서울특별시 서대문구 충정로2가 91-2,서울특별시 서대문구 충정로,서울특별시 서대문구 충정로 71,120012,3736.0,126.965674080884,37.5650204365918
435,에그셀런트 홍제역점,에그셀런트,홍제역점,음식,패스트푸드,서울특별시,서대문구,홍제2동,홍제동,서울특별시 서대문구 홍제동 139-5,서울특별시 서대문구 통일로,서울특별시 서대문구 통일로 402,120854,3632.0,126.94791927349,37.5855693982285
436,스시소우카이 ,스시소우카이,,음식,일식/수산물,서울특별시,서대문구,북가좌2동,북가좌동,서울특별시 서대문구 북가좌동 295-18,서울특별시 서대문구 증가로23나길,서울특별시 서대문구 증가로23나길 25,120812,3682.0,126.912712571929,37.5804838663068
437,해신포차 ,해신포차,,음식,유흥주점,서울특별시,서대문구,신촌동,창천동,서울특별시 서대문구 창천동 52-39,서울특별시 서대문구 연세로9길,서울특별시 서대문구 연세로9길 28,120834,3788.0,126.935247451173,37.5586769368217
438,우리콩두부사랑 ,우리콩두부사랑,,음식,한식,서울특별시,서대문구,충현동,충정로3가,서울특별시 서대문구 충정로3가 465,서울특별시 서대문구 서소문로,서울특별시 서대문구 서소문로 27,120013,3741.0,126.964845533717,37.5602736986601
439,가장맛있는족발 가재울점,가장맛있는족발,가재울점,음식,한식,서울특별시,서대문구,북가좌1동,북가좌동,서울특별시 서대문구 북가좌동 478,서울특별시 서대문구 수색로,서울특별시 서대문구 수색로 100,120130,3709.0,126.907804499286,37.5746809440599
440,한국로하스맥 ,한국로하스맥,,음식,분식,서울특별시,서대문구,신촌동,대현동,서울특별시 서대문구 대현동 45-5,서울특별시 서대문구 신촌로,서울특별시 서대문구 신촌로 189,120808,3767.0,126.946960538536,37.5571691281343
441,굽자나치킨 ,굽자나치킨,,음식,닭/오리요리,서울특별시,서대문구,신촌동,창천동,서울특별시 서대문구 창천동 92-9,서울특별시 서대문구 성산로22길,서울특별시 서대문구 성산로22길 2-5,120835,3727.0,126.933000303241,37.5606929978514
442,진사골 ,진사골,,음식,한식,서울특별시,서대문구,신촌동,대현동,서울특별시 서대문구 대현동 37-75,서울특별시 서대문구 이화여대7길,서울특별시 서대문구 이화여대7길 24,120808,3766.0,126.94426589718,37.5588390190091
443,충정각 ,충정각,,음식,양식,서울특별시,서대문구,충현동,충정로3가,서울특별시 서대문구 충정로3가 465,서울특별시 서대문구 서소문로,서울특별시 서대문구 서소문로 27,120013,3741.0,126.964845533717,37.5602736986601
444,신촌집 ,신촌집,,음식,분식,서울특별시,서대문구,신촌동,창천동,서울특별시 서대문구 창천동 20-39,서울특별시 서대문구 신촌로,서울특별시 서대문구 신촌로 123,120833,3780.0,126.939628767143,37.5562024670981
445,푸라닭 북가좌점,푸라닭,북가좌점,음식,닭/오리요리,서울특별시,서대문구,북가좌1동,북가좌동,서울특별시 서대문구 북가좌동 481,서울특별시 서대문구 수색로,서울특별시 서대문구 수색로 100,120725,3709.0,126.907804499286,37.5746809440599
446,또래오래 남가좌점,또래오래,남가좌점,음식,닭/오리요리,서울특별시,서대문구,남가좌1동,남가좌동,서울특별시 서대문구 남가좌동 379-2,서울특별시 서대문구 수색로6길,서울특별시 서대문구 수색로6길 45,120120,3709.0,126.91340864649,37.5723178874411
447,BHC치킨 연희점,BHC치킨,연희점,음식,닭/오리요리,서울특별시,서대문구,연희동,연희동,서울특별시 서대문구 연희동 95-36,서울특별시 서대문구 증가로,서울특별시 서대문구 증가로 28,120824,3698.0,126.93057062769,37.5707175880883
448,예나 ,예나,,음식,한식,서울특별시,서대문구,충현동,충정로3가,서울특별시 서대문구 충정로3가 465,서울특별시 서대문구 서소문로,서울특별시 서대문구 서소문로 27,120013,3741.0,126.964845533717,37.5602736986601
449,산해정 ,산해정,,음식,한식,서울특별시,서대문구,남가좌1동,남가좌동,서울특별시 서대문구 남가좌동 102-14,서울특별시 서대문구 수색로2길,서울특별시 서대문구 수색로2길 10,120120,3712.0,126.916282886389,37.5692717755948
450,아워홈이화여대신공학관식당 ,아워홈이화여대신공학관식당,,음식,기타음식업,서울특별시,서대문구,신촌동,대현동,서울특별시 서대문구 대현동 11-1,서울특별시 서대문구 이화여대길,서울특별시 서대문구 이화여대길 52,120750,3760.0,126.950301476769,37.5642810556138
451,짠 ,짠,,음식,한식,서울특별시,서대문구,신촌동,창천동,서울특별시 서대문구 창천동 4-96,서울특별시 서대문구 신촌역로,서울특별시 서대문구 신촌역로 39,120833,3777.0,126.94101589155,37.5589540786595
452,제주도로담 ,제주도로담,,음식,한식,서울특별시,서대문구,신촌동,대현동,서울특별시 서대문구 대현동 104-18,서울특별시 서대문구 연세로2마길,서울특별시 서대문구 연세로2마길 14,120809,3780.0,126.942277314691,37.557794034479
453,이삭토스트명지대점 명지대점,이삭토스트명지대점,명지대점,음식,패스트푸드,서울특별시,서대문구,남가좌2동,남가좌동,서울특별시 서대문구 남가좌동 343-1,서울특별시 서대문구 거북골로,서울특별시 서대문구 거북골로 39,120120,3665.0,126.923555516152,37.5791325786445
454,서대문아구찜 ,서대문아구찜,,음식,일식/수산물,서울특별시,서대문구,홍은2동,홍은동,서울특별시 서대문구 홍은동 274-32,서울특별시 서대문구 연희로,서울특별시 서대문구 연희로 265,120100,3658.0,126.935839952879,37.580676612361
455,사조미가한정식 ,사조미가한정식,,음식,일식/수산물,서울특별시,서대문구,충현동,충정로2가,서울특별시 서대문구 충정로2가 157,서울특별시 서대문구 통일로,서울특별시 서대문구 통일로 107-39,120707,3740.0,126.966104301464,37.5641952475034
456,김가네 서대문점,김가네,서대문점,음식,한식,서울특별시,서대문구,충현동,충정로2가,서울특별시 서대문구 충정로2가 192,서울특별시 서대문구 충정로,서울특별시 서대문구 충정로 59,120731,3736.0,126.96491680012,37.5641217690704
457,대성이네 ,대성이네,,음식,한식,서울특별시,서대문구,신촌동,창천동,서울특별시 서대문구 창천동 62-26,서울특별시 서대문구 연세로5나길,서울특별시 서대문구 연세로5나길 33,120834,3787.0,126.934252669595,37.5570010381434
458,피자나라치킨공주 홍제역점,피자나라치킨공주,홍제역점,음식,패스트푸드,서울특별시,서대문구,홍제1동,홍제동,서울특별시 서대문구 홍제동 154-10,서울특별시 서대문구 모래내로,서울특별시 서대문구 모래내로 465,120090,3646.0,126.946137301525,37.585877874456
459,서울만두EXPRESS ,서울만두EXPRESS,,음식,분식,서울특별시,서대문구,신촌동,창천동,서울특별시 서대문구 창천동 30-33,서울특별시 서대문구 신촌로,서울특별시 서대문구 신촌로 83,120706,3789.0,126.935827820491,37.556069154454
460,환이네포장마차 ,환이네포장마차,,음식,유흥주점,서울특별시,서대문구,남가좌2동,남가좌동,서울특별시 서대문구 남가좌동 324-8,서울특별시 서대문구 거북골로,서울특별시 서대문구 거북골로 21-12,120806,3665.0,126.925019079826,37.5797045582767
461,멕시카나치킨 명지대점,멕시카나치킨,명지대점,음식,닭/오리요리,서울특별시,서대문구,남가좌2동,남가좌동,서울특별시 서대문구 남가좌동 324-21,서울특별시 서대문구 거북골로,서울특별시 서대문구 거북골로 29-3,120806,3665.0,126.92460062687,37.5796737156472
462,랩1 ,랩1,,음식,유흥주점,서울특별시,서대문구,남가좌2동,남가좌동,서울특별시 서대문구 남가좌동 324-44,서울특별시 서대문구 거북골로,서울특별시 서대문구 거북골로 33-10,120120,3665.0,126.924156381306,37.5790749840883
463,마포식당 ,마포식당,,음식,한식,서울특별시,서대문구,충현동,충정로3가,서울특별시 서대문구 충정로3가 465,서울특별시 서대문구 서소문로,서울특별시 서대문구 서소문로 27,120013,3741.0,126.964845533717,37.5602736986601
464,배스킨라빈스31 명지대점,배스킨라빈스31,명지대점,음식,패스트푸드,서울특별시,서대문구,남가좌2동,남가좌동,서울특별시 서대문구 남가좌동 344-33,서울특별시 서대문구 증가로,서울특별시 서대문구 증가로 140,120120,3665.0,126.92200217629,37.577721798072
465,한우사랑정육점 ,한우사랑정육점,,음식,한식,서울특별시,서대문구,북가좌2동,북가좌동,서울특별시 서대문구 북가좌동 3-133,서울특별시 서대문구 증가로12나길,서울특별시 서대문구 증가로12나길 114,120130,3672.0,126.919556936409,37.5831957554696
466,미스터서왕만두 ,미스터서왕만두,,음식,분식,서울특별시,서대문구,신촌동,대현동,서울특별시 서대문구 대현동 27-20,서울특별시 서대문구 신촌역로,서울특별시 서대문구 신촌역로 16,120808,3766.0,126.943156461968,37.5580541986301
467,참맛나리아 ,참맛나리아,,음식,분식,서울특별시,서대문구,충현동,충정로3가,서울특별시 서대문구 충정로3가 465,서울특별시 서대문구 서소문로,서울특별시 서대문구 서소문로 27,120013,3741.0,126.964845533717,37.5602736986601
468,호산나 ,호산나,,음식,한식,서울특별시,서대문구,충현동,충정로3가,서울특별시 서대문구 충정로3가 465,서울특별시 서대문구 서소문로,서울특별시 서대문구 서소문로 27,120013,3741.0,126.964845533717,37.5602736986601
469,전골떡볶이 ,전골떡볶이,,음식,분식,서울특별시,서대문구,신촌동,대현동,서울특별시 서대문구 대현동 56-79,서울특별시 서대문구 이화여대5길,서울특별시 서대문구 이화여대5길 2,120808,3766.0,126.945516476795,37.558444727143
470,목포집 ,목포집,,음식,유흥주점,서울특별시,서대문구,신촌동,대신동,서울특별시 서대문구 대신동 16-21,서울특별시 서대문구 성산로,서울특별시 서대문구 성산로 486,120160,3765.0,126.941251194669,37.5607222268392
471,육정성 ,육정성,,음식,한식,서울특별시,서대문구,연희동,연희동,서울특별시 서대문구 연희동 189-7,서울특별시 서대문구 연희맛로,서울특별시 서대문구 연희맛로 15,120825,3707.0,126.929089590022,37.5666314724874
472,영자살롱 ,영자살롱,,음식,한식,서울특별시,서대문구,충현동,충정로3가,서울특별시 서대문구 충정로3가 465,서울특별시 서대문구 서소문로,서울특별시 서대문구 서소문로 27,120013,3741.0,126.964845533717,37.5602736986601
473,장군찜닭 ,장군찜닭,,음식,양식,서울특별시,서대문구,신촌동,창천동,서울특별시 서대문구 창천동 52-150,서울특별시 서대문구 연세로11길,서울특별시 서대문구 연세로11길 16,120834,3788.0,126.935876328945,37.5590250016851
474,물뛴다 ,물뛴다,,음식,한식,서울특별시,서대문구,충현동,충정로3가,서울특별시 서대문구 충정로3가 465,서울특별시 서대문구 서소문로,서울특별시 서대문구 서소문로 27,120013,3741.0,126.964845533717,37.5602736986601
475,소빈커피 ,소빈커피,,음식,유흥주점,서울특별시,서대문구,연희동,연희동,서울특별시 서대문구 연희동 292-1,서울특별시 서대문구 연희로10길,서울특별시 서대문구 연희로10길 40,120830,3725.0,126.932357041971,37.5653185206842
476,원조이모네곱창 ,원조이모네곱창,,음식,한식,서울특별시,서대문구,홍은1동,홍은동,서울특별시 서대문구 홍은동 9-333,서울특별시 서대문구 홍은중앙로,서울특별시 서대문구 홍은중앙로 99,120100,3602.0,126.948390347742,37.5995666755305
477,김밥사랑 ,김밥사랑,,음식,분식,서울특별시,서대문구,홍제1동,홍제동,서울특별시 서대문구 홍제동 167-27,서울특별시 서대문구 통일로37길,서울특별시 서대문구 통일로37길 11,120090,3646.0,126.944390800483,37.5876823605166
478,작은공간 ,작은공간,,음식,유흥주점,서울특별시,서대문구,북가좌1동,북가좌동,서울특별시 서대문구 북가좌동 382-6,서울특별시 서대문구 수색로10길,서울특별시 서대문구 수색로10길 20,120130,3714.0,126.905273300546,37.5759099354789
479,솜씨방 ,솜씨방,,음식,한식,서울특별시,서대문구,북아현동,북아현동,서울특별시 서대문구 북아현동 134-11,서울특별시 서대문구 북아현로2길,서울특별시 서대문구 북아현로2길 6-3,120819,3757.0,126.956802348954,37.5583377480377
480,시나위 ,시나위,,음식,양식,서울특별시,서대문구,신촌동,대현동,서울특별시 서대문구 대현동 37-2,서울특별시 서대문구 이화여대7길,서울특별시 서대문구 이화여대7길 22,120808,3766.0,126.944447731146,37.5587865824467
481,배스킨라빈스31CAFE31신촌점 CAFE31신촌점,배스킨라빈스31CAFE31신촌점,CAFE31신촌점,음식,패스트푸드,서울특별시,서대문구,신촌동,창천동,서울특별시 서대문구 창천동 5-55,서울특별시 서대문구 명물길,서울특별시 서대문구 명물길 38,120833,3777.0,126.938704476441,37.5583296267901
482,칼집삼겹 ,칼집삼겹,,음식,한식,서울특별시,서대문구,홍제1동,홍제동,서울특별시 서대문구 홍제동 330-99,서울특별시 서대문구 통일로39가길,서울특별시 서대문구 통일로39가길 12,120090,3636.0,126.943356088332,37.5887903862988
483,데니 ,데니,,음식,유흥주점,서울특별시,서대문구,신촌동,대현동,서울특별시 서대문구 대현동 60-61,서울특별시 서대문구 이화여대길,서울특별시 서대문구 이화여대길 50-6,120808,3764.0,126.946040376439,37.5590170605379
484,싸움의고수 서울신촌점,싸움의고수,서울신촌점,음식,한식,서울특별시,서대문구,신촌동,창천동,서울특별시 서대문구 창천동 13-27,서울특별시 서대문구 명물길,서울특별시 서대문구 명물길 20,120833,3777.0,126.937909163679,37.5577458094583
485,우정보리밥 ,우정보리밥,,음식,한식,서울특별시,서대문구,연희동,연희동,서울특별시 서대문구 연희동 169-24,서울특별시 서대문구 홍제천로,서울특별시 서대문구 홍제천로 206,120827,3660.0,126.93566597744,37.579377551539
486,NAAN신촌점 신촌점,NAAN신촌점,신촌점,음식,별식/퓨전요리,서울특별시,서대문구,신촌동,창천동,서울특별시 서대문구 창천동 2-2,서울특별시 서대문구 연세로12길,서울특별시 서대문구 연세로12길 23,120833,3776.0,126.938309092793,37.5590739348532
487,교촌치킨독립문점 독립문점,교촌치킨독립문점,독립문점,음식,닭/오리요리,서울특별시,서대문구,천연동,냉천동,서울특별시 서대문구 냉천동 227,서울특별시 서대문구 통일로,서울특별시 서대문구 통일로 153-1,120050,3735.0,126.964448028237,37.5677308306558
488,떡볶이만세 ,떡볶이만세,,음식,분식,서울특별시,서대문구,충현동,충정로3가,서울특별시 서대문구 충정로3가 251-1,서울특별시 서대문구 충정로,서울특별시 서대문구 충정로 26,120840,3742.0,126.963757293059,37.5612102453723
489,페리카나영천시장점 영천시장점,페리카나영천시장점,영천시장점,음식,닭/오리요리,서울특별시,서대문구,천연동,천연동,서울특별시 서대문구 천연동 1,서울특별시 서대문구 통일로,서울특별시 서대문구 통일로 175,120040,3734.0,126.962886243655,37.5693389926066
490,신미불닭발 ,신미불닭발,,음식,기타음식업,서울특별시,서대문구,신촌동,창천동,서울특별시 서대문구 창천동 5-34,서울특별시 서대문구 명물길,서울특별시 서대문구 명물길 50-8,120833,3777.0,126.939391229506,37.5585880892937
491,원조갈비통술집 ,원조갈비통술집,,음식,한식,서울특별시,서대문구,충현동,미근동,서울특별시 서대문구 미근동 171,서울특별시 서대문구 통일로,서울특별시 서대문구 통일로 107-4,120020,3738.0,126.96726344842,37.5646829448061
492,나리내분식 ,나리내분식,,음식,분식,서울특별시,서대문구,천연동,영천동,서울특별시 서대문구 영천동 335,서울특별시 서대문구 통일로,서울특별시 서대문구 통일로 181-1,120040,3734.0,126.962449512425,37.56981270613
493,마징가Live&노래장 ,마징가Live&노래장,,음식,유흥주점,서울특별시,서대문구,홍제3동,홍제동,서울특별시 서대문구 홍제동 305-3,서울특별시 서대문구 통일로,서울특별시 서대문구 통일로 452,120090,3629.0,126.944019219476,37.5891387145027
494,독립문맛집 ,독립문맛집,,음식,한식,서울특별시,서대문구,천연동,영천동,서울특별시 서대문구 영천동 284,서울특별시 서대문구 영천시장길,서울특별시 서대문구 영천시장길 21,120040,3734.0,126.960846746539,37.5711051159985
495,웅이네서서갈비 ,웅이네서서갈비,,음식,한식,서울특별시,서대문구,신촌동,대현동,서울특별시 서대문구 대현동 110-25,서울특별시 서대문구 신촌역로,서울특별시 서대문구 신촌역로 13-1,120809,3780.0,126.942501358727,37.5579582286696
496,영덕막회 ,영덕막회,,음식,일식/수산물,서울특별시,서대문구,충현동,충정로3가,서울특별시 서대문구 충정로3가 465,서울특별시 서대문구 서소문로,서울특별시 서대문구 서소문로 27,120013,3741.0,126.964845533717,37.5602736986601
497,자연담은치킨 ,자연담은치킨,,음식,닭/오리요리,서울특별시,서대문구,신촌동,창천동,서울특별시 서대문구 창천동 52-51,서울특별시 서대문구 연세로7길,서울특별시 서대문구 연세로7길 14,120834,3788.0,126.936041256494,37.5577740431597
498,키친별 ,키친별,,음식,양식,서울특별시,서대문구,신촌동,창천동,서울특별시 서대문구 창천동 13-28,서울특별시 서대문구 명물길,서울특별시 서대문구 명물길 16,120833,3777.0,126.937775664532,37.5575824212804
499,퀸 ,퀸,,음식,유흥주점,서울특별시,서대문구,홍제1동,홍제동,서울특별시 서대문구 홍제동 330-60,서울특별시 서대문구 통일로,서울특별시 서대문구 통일로 457,120090,3636.0,126.943225692337,37.5892036952231
500,자매식당 ,자매식당,,음식,한식,서울특별시,서대문구,남가좌2동,남가좌동,서울특별시 서대문구 남가좌동 350-6,서울특별시 서대문구 증가로,서울특별시 서대문구 증가로 143,120120,3692.0,126.921700571088,37.5774397222967
501,서울지짐이 ,서울지짐이,,음식,유흥주점,서울특별시,서대문구,남가좌2동,남가좌동,서울특별시 서대문구 남가좌동 324-5,서울특별시 서대문구 거북골로,서울특별시 서대문구 거북골로 21-8,120120,3665.0,126.924981881216,37.5799294783816
502,본죽 홍은서대문구청점,본죽,홍은서대문구청점,음식,별식/퓨전요리,서울특별시,서대문구,홍은2동,홍은동,서울특별시 서대문구 홍은동 274-20,서울특별시 서대문구 연희로,서울특별시 서대문구 연희로 267,120100,3658.0,126.935892707191,37.5809473988017
503,무교동낙지골 ,무교동낙지골,,음식,한식,서울특별시,서대문구,신촌동,창천동,서울특별시 서대문구 창천동 29-61,서울특별시 서대문구 연세로2길,서울특별시 서대문구 연세로2길 19,120833,3779.0,126.937977319322,37.5561335611601
504,툇마루숯불갈비 ,툇마루숯불갈비,,음식,한식,서울특별시,서대문구,홍은2동,홍은동,서울특별시 서대문구 홍은동 415-55,서울특별시 서대문구 모래내로,서울특별시 서대문구 모래내로 261,120100,3664.0,126.927282403779,37.5766165745769
505,돈부리 신촌점,돈부리,신촌점,음식,일식/수산물,서울특별시,서대문구,신촌동,창천동,서울특별시 서대문구 창천동 2-19,서울특별시 서대문구 연세로12길,서울특별시 서대문구 연세로12길 28,120833,3776.0,126.938526160301,37.5589317203193
506,고기좋은날 ,고기좋은날,,음식,한식,서울특별시,서대문구,남가좌2동,남가좌동,서울특별시 서대문구 남가좌동 124-501,서울특별시 서대문구 모래내로15길,서울특별시 서대문구 모래내로15길 42,120120,3710.0,126.919829973306,37.5737013422085
507,지노프란체스카티이대점 이대점,지노프란체스카티이대점,이대점,음식,양식,서울특별시,서대문구,신촌동,대신동,서울특별시 서대문구 대신동 84-1,서울특별시 서대문구 연대동문길,서울특별시 서대문구 연대동문길 45,120160,3721.0,126.944391047112,37.5644085632472
508,썸 ,썸,,음식,한식,서울특별시,서대문구,홍제3동,홍제동,서울특별시 서대문구 홍제동 300-10,서울특별시 서대문구 통일로40길,서울특별시 서대문구 통일로40길 13,120090,3628.0,126.943504515795,37.5903054545441
509,이코노스시 본점,이코노스시,본점,음식,일식/수산물,서울특별시,서대문구,신촌동,대현동,서울특별시 서대문구 대현동 101-5,서울특별시 서대문구 신촌역로,서울특별시 서대문구 신촌역로 14,120809,3766.0,126.943035031077,37.557836861954
510,도르리쿡 ,도르리쿡,,음식,분식,서울특별시,서대문구,천연동,냉천동,서울특별시 서대문구 냉천동 233,서울특별시 서대문구 통일로9길,서울특별시 서대문구 통일로9길 4,120050,3735.0,126.964667940844,37.5673813537768
511,피자랑 ,피자랑,,음식,패스트푸드,서울특별시,서대문구,북아현동,북아현동,서울특별시 서대문구 북아현동 130-3,서울특별시 서대문구 북아현로2길,서울특별시 서대문구 북아현로2길 21,120819,3757.0,126.956973623981,37.5590420733006
512,PIZZA&PASTA ,PIZZA&PASTA,,음식,양식,서울특별시,서대문구,신촌동,신촌동,서울특별시 서대문구 신촌동 134,서울특별시 서대문구 연세로,서울특별시 서대문구 연세로 50,120749,3722.0,126.942916817516,37.5638006863037
513,이소현양평해장국 ,이소현양평해장국,,음식,한식,서울특별시,서대문구,충현동,충정로3가,서울특별시 서대문구 충정로3가 465,서울특별시 서대문구 서소문로,서울특별시 서대문구 서소문로 27,120013,3741.0,126.964845533717,37.5602736986601
514,연세대학교백양로 ,연세대학교백양로,,음식,한식,서울특별시,서대문구,신촌동,신촌동,서울특별시 서대문구 신촌동 134,서울특별시 서대문구 연세로,서울특별시 서대문구 연세로 50,120749,3722.0,126.942916817516,37.5638006863037
515,식탁 ,식탁,,음식,한식,서울특별시,서대문구,신촌동,대신동,서울특별시 서대문구 대신동 85,서울특별시 서대문구 성산로,서울특별시 서대문구 성산로 527,120160,3721.0,126.9440718597,37.5637659708989
516,신촌오빠네옛날떡볶이 ,신촌오빠네옛날떡볶이,,음식,분식,서울특별시,서대문구,신촌동,창천동,서울특별시 서대문구 창천동 62-21,서울특별시 서대문구 연세로5다길,서울특별시 서대문구 연세로5다길 22-7,120834,3787.0,126.934389239154,37.5569482084757
517,금일식당 ,금일식당,,음식,한식,서울특별시,서대문구,연희동,연희동,서울특별시 서대문구 연희동 107-1,서울특별시 서대문구 증가로,서울특별시 서대문구 증가로 49-1,120825,3702.0,126.928944147646,37.5720453875805
518,미스터피자 홍제점,미스터피자,홍제점,음식,패스트푸드,서울특별시,서대문구,홍제3동,홍제동,서울특별시 서대문구 홍제동 274-36,서울특별시 서대문구 세검정로,서울특별시 서대문구 세검정로 65-1,120090,3623.0,126.947645856488,37.5937303447841
519,함흥냉면 ,함흥냉면,,음식,한식,서울특별시,서대문구,북가좌2동,북가좌동,서울특별시 서대문구 북가좌동 293-4,서울특별시 서대문구 응암로,서울특별시 서대문구 응암로 94,120130,3682.0,126.912555713406,37.5811491867917
520,제이제이케터링SFS지 ,제이제이케터링SFS지,,음식,한식,서울특별시,서대문구,연희동,연희동,서울특별시 서대문구 연희동 55-1,서울특별시 서대문구 연희로22길,서울특별시 서대문구 연희로22길 39,120823,3723.0,126.936134527664,37.5703173422669
521,이삭토스트이대점 이대점,이삭토스트이대점,이대점,음식,패스트푸드,서울특별시,서대문구,신촌동,대현동,서울특별시 서대문구 대현동 56-86,서울특별시 서대문구 이화여대7길,서울특별시 서대문구 이화여대7길 15,120808,3766.0,126.944777955742,37.5586453679651
522,피카소 단란주점,피카소,단란주점,음식,유흥주점,서울특별시,서대문구,홍은2동,홍은동,서울특별시 서대문구 홍은동 277-75,서울특별시 서대문구 모래내로,서울특별시 서대문구 모래내로 359,120100,3654.0,126.935857114888,37.5818571243909
523,할매추어탕 ,할매추어탕,,음식,한식,서울특별시,서대문구,충현동,충정로3가,서울특별시 서대문구 충정로3가 465,서울특별시 서대문구 서소문로,서울특별시 서대문구 서소문로 27,120013,3741.0,126.964845533717,37.5602736986601
524,종로분식 ,종로분식,,음식,분식,서울특별시,서대문구,충현동,미근동,서울특별시 서대문구 미근동 215,서울특별시 서대문구 충정로6길,서울특별시 서대문구 충정로6길 59,120020,3739.0,126.968518717758,37.5631261073731
525,한방통닭숯불바베큐 ,한방통닭숯불바베큐,,음식,닭/오리요리,서울특별시,서대문구,북가좌2동,북가좌동,서울특별시 서대문구 북가좌동 326-3,서울특별시 서대문구 응암로,서울특별시 서대문구 응암로 95,120130,3678.0,126.912267726992,37.5814889263535
526,옌꾸이 ,옌꾸이,,음식,한식,서울특별시,서대문구,신촌동,대현동,서울특별시 서대문구 대현동 90-15,서울특별시 서대문구 이화여대3길,서울특별시 서대문구 이화여대3길 29,120809,3766.0,126.944008276508,37.5578455709012
527,자연담은화로신촌점 신촌점,자연담은화로신촌점,신촌점,음식,한식,서울특별시,서대문구,신촌동,창천동,서울특별시 서대문구 창천동 52-152,서울특별시 서대문구 연세로11길,서울특별시 서대문구 연세로11길 29,120834,3788.0,126.935120529062,37.5588469895896
528,BHC치킨 남가좌점,BHC치킨,남가좌점,음식,닭/오리요리,서울특별시,서대문구,남가좌2동,남가좌동,서울특별시 서대문구 남가좌동 338-4,서울특별시 서대문구 증가로,서울특별시 서대문구 증가로 119,120120,3692.0,126.924128171719,37.5771014588051
529,마루이 ,마루이,,음식,유흥주점,서울특별시,서대문구,홍제2동,홍제동,서울특별시 서대문구 홍제동 174-14,서울특별시 서대문구 통일로,서울특별시 서대문구 통일로 432,120090,3630.0,126.945759918988,37.587748659351
530,쓰잡 ,쓰잡,,음식,유흥주점,서울특별시,서대문구,북아현동,북아현동,서울특별시 서대문구 북아현동 130-19,서울특별시 서대문구 북아현로,서울특별시 서대문구 북아현로 16,120819,3757.0,126.956693713022,37.5588233502591
531,황해동태찜 ,황해동태찜,,음식,일식/수산물,서울특별시,서대문구,천연동,냉천동,서울특별시 서대문구 냉천동 184-29,서울특별시 서대문구 통일로9안길,서울특별시 서대문구 통일로9안길 22,120050,3735.0,126.965135880469,37.5662861873259
532,하마호프 ,하마호프,,음식,양식,서울특별시,서대문구,홍제3동,홍제동,서울특별시 서대문구 홍제동 294-20,서울특별시 서대문구 인왕시장길,서울특별시 서대문구 인왕시장길 12,120090,3628.0,126.942566319745,37.5909908499965
533,맛있는칼국수 ,맛있는칼국수,,음식,분식,서울특별시,서대문구,북가좌2동,북가좌동,서울특별시 서대문구 북가좌동 345-27,서울특별시 서대문구 불광천길,서울특별시 서대문구 불광천길 150,120130,3680.0,126.908888109351,37.5818812203083
534,서대문아구찜 ,서대문아구찜,,음식,일식/수산물,서울특별시,서대문구,홍은2동,홍은동,서울특별시 서대문구 홍은동 274-82,서울특별시 서대문구 연희로,서울특별시 서대문구 연희로 271,120847,3658.0,126.935831104552,37.5812982475366
535,명성생삼겹살구이 ,명성생삼겹살구이,,음식,한식,서울특별시,서대문구,충현동,충정로3가,서울특별시 서대문구 충정로3가 189-8,서울특별시 서대문구 충정로7길,서울특별시 서대문구 충정로7길 9,120839,3737.0,126.964137026768,37.5632138889078
536,오동술 서대문점,오동술,서대문점,음식,유흥주점,서울특별시,서대문구,충현동,충정로2가,서울특별시 서대문구 충정로2가 19-2,서울특별시 서대문구 통일로9안길,서울특별시 서대문구 통일로9안길 39,120012,3735.0,126.965820949076,37.5658596911042
537,어가회수산 ,어가회수산,,음식,일식/수산물,서울특별시,서대문구,홍은1동,홍은동,서울특별시 서대문구 홍은동 9-154,서울특별시 서대문구 포방터2길,서울특별시 서대문구 포방터2길 5,120100,3606.0,126.949430255049,37.5989001612041
538,오피스알파 인델리숍,오피스알파,인델리숍,음식,양식,서울특별시,서대문구,홍은2동,홍은동,서울특별시 서대문구 홍은동 201-1,서울특별시 서대문구 연희로,서울특별시 서대문구 연희로 353,120710,3650.0,126.935000611491,37.5895262212225
539,ECHO ,ECHO,,음식,한식,서울특별시,서대문구,신촌동,창천동,서울특별시 서대문구 창천동 31-26,서울특별시 서대문구 명물1길,서울특별시 서대문구 명물1길 2,120834,3776.0,126.937307967352,37.5578395139952
540,통닭박사 ,통닭박사,,음식,닭/오리요리,서울특별시,서대문구,홍은2동,홍은동,서울특별시 서대문구 홍은동 277-157,서울특별시 서대문구 연희로,서울특별시 서대문구 연희로 283,120100,3652.0,126.935952330791,37.5823265214693
541,빈스앤와플북가좌점 북가좌점,빈스앤와플북가좌점,북가좌점,음식,패스트푸드,서울특별시,서대문구,북가좌2동,북가좌동,서울특별시 서대문구 북가좌동 293-12,서울특별시 서대문구 증가로25길,서울특별시 서대문구 증가로25길 22,120130,3682.0,126.912904413224,37.5813055745737
542,일품향 ,일품향,,음식,중식,서울특별시,서대문구,충현동,충정로3가,서울특별시 서대문구 충정로3가 465,서울특별시 서대문구 서소문로,서울특별시 서대문구 서소문로 27,120013,3741.0,126.964845533717,37.5602736986601
543,국선생 가재울점,국선생,가재울점,음식,한식,서울특별시,서대문구,북가좌1동,북가좌동,서울특별시 서대문구 북가좌동 481,서울특별시 서대문구 수색로,서울특별시 서대문구 수색로 100,120725,3709.0,126.911744028621,37.5731315061
544,오뎅이자까야주점 ,오뎅이자까야주점,,음식,유흥주점,서울특별시,서대문구,충현동,북아현동,서울특별시 서대문구 북아현동 3-129,서울특별시 서대문구 북아현로,서울특별시 서대문구 북아현로 58,120818,3750.0,126.955725732065,37.562491038318
545,오징어청춘 ,오징어청춘,,음식,유흥주점,서울특별시,서대문구,홍은2동,홍은동,서울특별시 서대문구 홍은동 275-7,서울특별시 서대문구 연희로,서울특별시 서대문구 연희로 261,120847,3658.0,126.935789378995,37.580252669383
546,양평해장국 이소현,양평해장국,이소현,음식,한식,서울특별시,서대문구,충현동,충정로3가,서울특별시 서대문구 충정로3가 3-13,서울특별시 서대문구 경기대로7길,서울특별시 서대문구 경기대로7길 4,120837,3752.0,126.961907817075,37.5631672772426
547,써브웨이홍제점 홍제점,써브웨이홍제점,홍제점,음식,패스트푸드,서울특별시,서대문구,홍제2동,홍제동,서울특별시 서대문구 홍제동 137-17,서울특별시 서대문구 통일로,서울특별시 서대문구 통일로 418,120090,3630.0,126.946587498876,37.5868730329568
548,S스낵 ,S스낵,,음식,분식,서울특별시,서대문구,신촌동,신촌동,서울특별시 서대문구 신촌동 134,서울특별시 서대문구 연세로,서울특별시 서대문구 연세로 50,120749,3722.0,126.942916817516,37.5638006863037
549,업다운 ,업다운,,음식,유흥주점,서울특별시,서대문구,홍제1동,홍제동,서울특별시 서대문구 홍제동 294-49,서울특별시 서대문구 통일로,서울특별시 서대문구 통일로 481,120090,3636.0,126.941549142396,37.5908555876363
550,김가네 아현역점,김가네,아현역점,음식,분식,서울특별시,서대문구,북아현동,북아현동,서울특별시 서대문구 북아현동 134-24,서울특별시 서대문구 북아현로,서울특별시 서대문구 북아현로 8-1,120819,3757.0,126.956498802151,37.5581908989701
551,로드샌드위치 ,로드샌드위치,,음식,패스트푸드,서울특별시,서대문구,신촌동,대신동,서울특별시 서대문구 대신동 92,서울특별시 서대문구 연대동문길,서울특별시 서대문구 연대동문길 47-6,120160,3722.0,126.944431996069,37.5647152827289
552,노래하는밤열차 ,노래하는밤열차,,음식,유흥주점,서울특별시,서대문구,홍은1동,홍은동,서울특별시 서대문구 홍은동 48-159,서울특별시 서대문구 세검정로1길,서울특별시 서대문구 세검정로1길 13,120100,3615.0,126.94250254769,37.592296779491
553,양지노래방 ,양지노래방,,음식,유흥주점,서울특별시,서대문구,남가좌1동,남가좌동,서울특별시 서대문구 남가좌동 102-24,서울특별시 서대문구 수색로,서울특별시 서대문구 수색로 20,120120,3712.0,126.916368641759,37.5688220445848
554,이가네 ,이가네,,음식,한식,서울특별시,서대문구,남가좌1동,남가좌동,서울특별시 서대문구 남가좌동 295-5,서울특별시 서대문구 수색로,서울특별시 서대문구 수색로 42,120805,3712.0,126.914239754489,37.5704333591557
555,타이스토리 ,타이스토리,,음식,한식,서울특별시,서대문구,신촌동,대현동,서울특별시 서대문구 대현동 56-79,서울특별시 서대문구 이화여대5길,서울특별시 서대문구 이화여대5길 2,120808,3766.0,126.945516476795,37.558444727143
556,술찾사 ,술찾사,,음식,한식,서울특별시,서대문구,남가좌2동,남가좌동,서울특별시 서대문구 남가좌동 324-9,서울특별시 서대문구 거북골로,서울특별시 서대문구 거북골로 25-8,120120,3665.0,126.924906915735,37.579631453911
557,방콕반점 ,방콕반점,,음식,중식,서울특별시,서대문구,신촌동,창천동,서울특별시 서대문구 창천동 13-3,서울특별시 서대문구 명물길,서울특별시 서대문구 명물길 36-6,120833,3777.0,126.938640281282,37.5580677481811
558,솜씨방 ,솜씨방,,음식,한식,서울특별시,서대문구,북아현동,북아현동,서울특별시 서대문구 북아현동 130-7,서울특별시 서대문구 북아현로2길,서울특별시 서대문구 북아현로2길 11,120819,3757.0,126.956923695359,37.5585640804492
559,가재울한식이야기 ,가재울한식이야기,,음식,한식,서울특별시,서대문구,홍은2동,홍은동,서울특별시 서대문구 홍은동 415-52,서울특별시 서대문구 모래내로,서울특별시 서대문구 모래내로 263,120100,3664.0,126.927473673771,37.5766994058421
560,KEB하나은행 ATM,KEB하나은행,ATM,음식,기타음식업,서울특별시,서대문구,홍제1동,홍제동,서울특별시 서대문구 홍제동 301-19,서울특별시 서대문구 통일로,서울특별시 서대문구 통일로 451,120091,3636.0,126.943833500618,37.5886595039272
561,파오 ,파오,,음식,한식,서울특별시,서대문구,신촌동,대현동,서울특별시 서대문구 대현동 54-4,서울특별시 서대문구 이화여대길,서울특별시 서대문구 이화여대길 34,120808,3767.0,126.945924012362,37.5584393559433
562,라멘81 ,라멘81,,음식,일식/수산물,서울특별시,서대문구,신촌동,대현동,서울특별시 서대문구 대현동 27-20,서울특별시 서대문구 신촌역로,서울특별시 서대문구 신촌역로 16,120808,3766.0,126.943156461968,37.5580541986301
563,버거킹 홍제역점,버거킹,홍제역점,음식,패스트푸드,서울특별시,서대문구,홍제3동,홍제동,서울특별시 서대문구 홍제동 301-2,서울특별시 서대문구 통일로,서울특별시 서대문구 통일로 464,120857,3629.0,126.94320379761,37.5899513585974
564,피자에땅가재울점 가재울점,피자에땅가재울점,가재울점,음식,패스트푸드,서울특별시,서대문구,북가좌1동,북가좌동,서울특별시 서대문구 북가좌동 371-9,서울특별시 서대문구 수색로10길,서울특별시 서대문구 수색로10길 21,120130,3714.0,126.905000843426,37.575961470488
565,온달분식 ,온달분식,,음식,분식,서울특별시,서대문구,충현동,충정로3가,서울특별시 서대문구 충정로3가 3-191,서울특별시 서대문구 경기대로7길,서울특별시 서대문구 경기대로7길 3,120837,3752.0,126.961841536293,37.5630495591175
566,페리카나북가좌2점 북가좌2점,페리카나북가좌2점,북가좌2점,음식,닭/오리요리,서울특별시,서대문구,북가좌2동,북가좌동,서울특별시 서대문구 북가좌동 107-1,서울특별시 서대문구 거북골로,서울특별시 서대문구 거북골로 148,120130,3690.0,126.913396917646,37.5754623933517
567,세시봉 ,세시봉,,음식,유흥주점,서울특별시,서대문구,신촌동,창천동,서울특별시 서대문구 창천동 57-6,서울특별시 서대문구 연세로5나길,서울특별시 서대문구 연세로5나길 30-12,120834,3789.0,126.934891178279,37.5574663303165
568,로맨스 ,로맨스,,음식,유흥주점,서울특별시,서대문구,남가좌1동,남가좌동,서울특별시 서대문구 남가좌동 102-16,서울특별시 서대문구 수색로2길,서울특별시 서대문구 수색로2길 8,120120,3712.0,126.916295640717,37.5691727786749
569,오퍼스 ,오퍼스,,음식,유흥주점,서울특별시,서대문구,신촌동,창천동,서울특별시 서대문구 창천동 52-58,서울특별시 서대문구 연세로7길,서울특별시 서대문구 연세로7길 18,120834,3788.0,126.935848743288,37.5577813185228
570,조선의육개장 ,조선의육개장,,음식,한식,서울특별시,서대문구,신촌동,창천동,서울특별시 서대문구 창천동 57-61,서울특별시 서대문구 연세로5나길,서울특별시 서대문구 연세로5나길 20,120834,3789.0,126.935033133658,37.5570351118564
571,쉼터 ,쉼터,,음식,유흥주점,서울특별시,서대문구,북아현동,북아현동,서울특별시 서대문구 북아현동 134-3,서울특별시 서대문구 북아현로2안길,서울특별시 서대문구 북아현로2안길 6,120819,3757.0,126.956826741279,37.5582118178085
572,옹기종기칼국수 ,옹기종기칼국수,,음식,분식,서울특별시,서대문구,홍제3동,홍제동,서울특별시 서대문구 홍제동 261-1,서울특별시 서대문구 통일로40안길,서울특별시 서대문구 통일로40안길 34,120090,3628.0,126.944666581803,37.5914061034367
573,젊은소나무 ,젊은소나무,,음식,한식,서울특별시,서대문구,신촌동,창천동,서울특별시 서대문구 창천동 13-44,서울특별시 서대문구 연세로4길,서울특별시 서대문구 연세로4길 28,120833,3777.0,126.938331719145,37.5574792980232
574,어뮤즈그라운드 ,어뮤즈그라운드,,음식,유흥주점,서울특별시,서대문구,남가좌2동,남가좌동,서울특별시 서대문구 남가좌동 338-40,서울특별시 서대문구 가재울로4길,서울특별시 서대문구 가재울로4길 67,120120,3692.0,126.924702575625,37.5765210193234
575,멕시칸치킨 연희점,멕시칸치킨,연희점,음식,닭/오리요리,서울특별시,서대문구,연희동,연희동,서울특별시 서대문구 연희동 715-4,서울특별시 서대문구 홍연길,서울특별시 서대문구 홍연길 82,120827,3695.0,126.931109458162,37.5765792079601
576,고향집 ,고향집,,음식,한식,서울특별시,서대문구,홍제2동,홍제동,서울특별시 서대문구 홍제동 109-3,서울특별시 서대문구 통일로34길,서울특별시 서대문구 통일로34길 5,120090,3632.0,126.948466104346,37.5853309912242
577,청춘보쌈 ,청춘보쌈,,음식,한식,서울특별시,서대문구,남가좌2동,남가좌동,서울특별시 서대문구 남가좌동 325-15,서울특별시 서대문구 증가로10길,서울특별시 서대문구 증가로10길 38,120806,3665.0,126.924250570347,37.5788235525461
578,원조남원추어탕 ,원조남원추어탕,,음식,한식,서울특별시,서대문구,홍제3동,홍제동,서울특별시 서대문구 홍제동 266-60,서울특별시 서대문구 세검정로,서울특별시 서대문구 세검정로 46,120090,3624.0,126.946287788917,37.5920693336109
579,스시마쯔 ,스시마쯔,,음식,일식/수산물,서울특별시,서대문구,연희동,연희동,서울특별시 서대문구 연희동 79-31,서울특별시 서대문구 연희로,서울특별시 서대문구 연희로 166,120829,3723.0,126.935139829108,37.5718040962598
580,그리다 커피에,그리다,커피에,음식,한식,서울특별시,서대문구,홍은1동,홍은동,서울특별시 서대문구 홍은동 48-213,서울특별시 서대문구 세검정로,서울특별시 서대문구 세검정로 15,120101,3616.0,126.943013822516,37.5921752144074
581,축산정육식당홍제점 홍제점,축산정육식당홍제점,홍제점,음식,한식,서울특별시,서대문구,홍제1동,홍제동,서울특별시 서대문구 홍제동 294-50,서울특별시 서대문구 통일로,서울특별시 서대문구 통일로 479,120090,3636.0,126.941607154832,37.5907569940002
582,내가찜한닭신촌점 신촌점,내가찜한닭신촌점,신촌점,음식,한식,서울특별시,서대문구,신촌동,창천동,서울특별시 서대문구 창천동 31-36,서울특별시 서대문구 연세로,서울특별시 서대문구 연세로 24,120834,3776.0,126.937093972284,37.5577655044565
583,픽앤캐리 ,픽앤캐리,,음식,양식,서울특별시,서대문구,연희동,연희동,서울특별시 서대문구 연희동 133-30,서울특별시 서대문구 증가로,서울특별시 서대문구 증가로 13-9,120825,3703.0,126.931091569845,37.5691184595893
584,건도리 ,건도리,,음식,한식,서울특별시,서대문구,홍제1동,홍제동,서울특별시 서대문구 홍제동 330-241,서울특별시 서대문구 통일로39가길,서울특별시 서대문구 통일로39가길 1,120859,3637.0,126.943612037217,37.5883061181181
585,꼬꼬불닭발 ,꼬꼬불닭발,,음식,닭/오리요리,서울특별시,서대문구,남가좌2동,남가좌동,서울특별시 서대문구 남가좌동 342-10,서울특별시 서대문구 증가로10길,서울특별시 서대문구 증가로10길 22,120807,3665.0,126.923522299395,37.5782943126596
586,육쌈냉면 명지대점,육쌈냉면,명지대점,음식,한식,서울특별시,서대문구,홍은2동,홍은동,서울특별시 서대문구 홍은동 401-46,서울특별시 서대문구 거북골로,서울특별시 서대문구 거북골로 18,120100,3675.0,126.925266231366,37.5806258649934
587,신촌간이회집 ,신촌간이회집,,음식,일식/수산물,서울특별시,서대문구,신촌동,창천동,서울특별시 서대문구 창천동 62-60,서울특별시 서대문구 연세로5다길,서울특별시 서대문구 연세로5다길 22,120834,3789.0,126.934450312562,37.5566333958122
588,와플잇업 ,와플잇업,,음식,패스트푸드,서울특별시,서대문구,신촌동,대현동,서울특별시 서대문구 대현동 27-17,서울특별시 서대문구 이화여대3길,서울특별시 서대문구 이화여대3길 42-19,120808,3766.0,126.94332366996,37.5582359032912
589,가마솥 ,가마솥,,음식,한식,서울특별시,서대문구,충현동,충정로3가,서울특별시 서대문구 충정로3가 465,서울특별시 서대문구 서소문로,서울특별시 서대문구 서소문로 27,120013,3741.0,126.964845533717,37.5602736986601
590,업텐브로피자3 9호점,업텐브로피자3,9호점,음식,패스트푸드,서울특별시,서대문구,북가좌2동,북가좌동,서울특별시 서대문구 북가좌동 294-22,서울특별시 서대문구 증가로25길,서울특별시 서대문구 증가로25길 19,120812,3682.0,126.913201489863,37.5811190929713
591,혼밥대장 신촌본점,혼밥대장,신촌본점,음식,한식,서울특별시,서대문구,신촌동,창천동,서울특별시 서대문구 창천동 5-64,서울특별시 서대문구 연세로4길,서울특별시 서대문구 연세로4길 45,120833,3777.0,126.938956258083,37.5581336610896
592,포미 ,포미,,음식,한식,서울특별시,서대문구,홍제1동,홍제동,서울특별시 서대문구 홍제동 147-10,서울특별시 서대문구 통일로,서울특별시 서대문구 통일로 405,120855,3730.0,126.947067024573,37.5857870578239
593,오계절남원추어탕 ,오계절남원추어탕,,음식,한식,서울특별시,서대문구,홍은2동,홍은동,서울특별시 서대문구 홍은동 274-20,서울특별시 서대문구 연희로,서울특별시 서대문구 연희로 267,120100,3658.0,126.935892707191,37.5809473988017
594,에크리 ,에크리,,음식,양식,서울특별시,서대문구,충현동,충정로3가,서울특별시 서대문구 충정로3가 185-3,서울특별시 서대문구 경기대로,서울특별시 서대문구 경기대로 42,120838,3737.0,126.962203951444,37.5630347246693
595,선진국낙지마당 ,선진국낙지마당,,음식,한식,서울특별시,서대문구,충현동,충정로2가,서울특별시 서대문구 충정로2가 99-11,서울특별시 서대문구 충정로9길,서울특별시 서대문구 충정로9길 12,120012,3736.0,126.964719160334,37.5644984732091
596,고기사랑 ,고기사랑,,음식,일식/수산물,서울특별시,서대문구,충현동,충정로3가,서울특별시 서대문구 충정로3가 345,서울특별시 서대문구 충정로4길,서울특별시 서대문구 충정로4길 26,120840,3742.0,126.964200699876,37.5602500222337
597,애란네김밥 ,애란네김밥,,음식,분식,서울특별시,서대문구,천연동,영천동,서울특별시 서대문구 영천동 69-66,서울특별시 서대문구 독립문로1길,서울특별시 서대문구 독립문로1길 9-8,120070,3734.0,126.960043482265,37.5710710112278
598,명성족발 ,명성족발,,음식,한식,서울특별시,서대문구,홍제3동,홍제동,서울특별시 서대문구 홍제동 302-1,서울특별시 서대문구 통일로,서울특별시 서대문구 통일로 460,120857,3629.0,126.943388637926,37.5896917131846
599,서해바지락칼국수 ,서해바지락칼국수,,음식,분식,서울특별시,서대문구,북아현동,북아현동,서울특별시 서대문구 북아현동 130-30,서울특별시 서대문구 북아현로4길,서울특별시 서대문구 북아현로4길 2,120819,3757.0,126.956790039132,37.5592206594739
600,복래찬합 ,복래찬합,,음식,한식,서울특별시,서대문구,홍은2동,홍은동,서울특별시 서대문구 홍은동 90-2,서울특별시 서대문구 통일로,서울특별시 서대문구 통일로 497,120844,3647.0,126.940827272614,37.5922547264017
601,김밥천국 홍제점,김밥천국,홍제점,음식,분식,서울특별시,서대문구,홍제3동,홍제동,서울특별시 서대문구 홍제동 279-74,서울특별시 서대문구 간호대로,서울특별시 서대문구 간호대로 9,120090,3619.0,126.948569204836,37.5965137618905
602,아로하치킨 ,아로하치킨,,음식,닭/오리요리,서울특별시,서대문구,충현동,북아현동,서울특별시 서대문구 북아현동 3-129,서울특별시 서대문구 북아현로,서울특별시 서대문구 북아현로 58,120818,3750.0,126.955725732065,37.562491038318
603,1988옛날통닭 ,1988옛날통닭,,음식,유흥주점,서울특별시,서대문구,북가좌2동,북가좌동,서울특별시 서대문구 북가좌동 458,서울특별시 서대문구 거북골로14길,서울특별시 서대문구 거북골로14길 32,120777,3690.0,126.914485028147,37.5769320815368
604,위대한치킨동무 ,위대한치킨동무,,음식,유흥주점,서울특별시,서대문구,홍은2동,홍은동,서울특별시 서대문구 홍은동 274-89,서울특별시 서대문구 모래내로,서울특별시 서대문구 모래내로 344,120847,3658.0,126.934844029179,37.5806496088657
605,어사출또 신촌점,어사출또,신촌점,음식,일식/수산물,서울특별시,서대문구,신촌동,창천동,서울특별시 서대문구 창천동 57-33,서울특별시 서대문구 연세로5가길,서울특별시 서대문구 연세로5가길 21,120834,3789.0,126.935359265721,37.55718221953
606,파스타리코 ,파스타리코,,음식,양식,서울특별시,서대문구,신촌동,대현동,서울특별시 서대문구 대현동 110-5,서울특별시 서대문구 신촌역로,서울특별시 서대문구 신촌역로 23,120809,3777.0,126.942434078324,37.5587144996336
607,신포우리만두신촌점 신촌점,신포우리만두신촌점,신촌점,음식,분식,서울특별시,서대문구,신촌동,신촌동,서울특별시 서대문구 신촌동 52-8,서울특별시 서대문구 연대동문1길,서울특별시 서대문구 연대동문1길 67,120140,3788.0,126.943986264669,37.5698291969316
608,투다리 하나로점,투다리,하나로점,음식,유흥주점,서울특별시,서대문구,홍은2동,홍은동,서울특별시 서대문구 홍은동 401-13,서울특별시 서대문구 명지대길,서울특별시 서대문구 명지대길 18,120100,3675.0,126.925042598418,37.5812185119499
609,멤버스클럽 그랜드힐튼호텔,멤버스클럽,그랜드힐튼호텔,음식,유흥주점,서울특별시,서대문구,홍은2동,홍은동,서울특별시 서대문구 홍은동 201-1,서울특별시 서대문구 연희로,서울특별시 서대문구 연희로 353,120710,3650.0,126.935000611491,37.5895262212225
610,플러스알파카페 ,플러스알파카페,,음식,한식,서울특별시,서대문구,신촌동,대현동,서울특별시 서대문구 대현동 67-5,서울특별시 서대문구 신촌로,서울특별시 서대문구 신촌로 203,120808,3767.0,126.948488042805,37.5572007631312
611,독도게찜 ,독도게찜,,음식,일식/수산물,서울특별시,서대문구,충현동,합동,서울특별시 서대문구 합동 116,서울특별시 서대문구 서소문로,서울특별시 서대문구 서소문로 45,120030,3741.0,126.96623518039,37.5612770203313
612,공감 ,공감,,음식,분식,서울특별시,서대문구,충현동,충정로3가,서울특별시 서대문구 충정로3가 465,서울특별시 서대문구 서소문로,서울특별시 서대문구 서소문로 27,120013,3741.0,126.964845533717,37.5602736986601
613,육쌈냉면 ,육쌈냉면,,음식,한식,서울특별시,서대문구,신촌동,대현동,서울특별시 서대문구 대현동 34-34,서울특별시 서대문구 이화여대길,서울특별시 서대문구 이화여대길 76,120808,3765.0,126.944259414023,37.559298491459
614,쿡스 ,쿡스,,음식,한식,서울특별시,서대문구,홍은2동,홍은동,서울특별시 서대문구 홍은동 408-1,서울특별시 서대문구 증가로10길,서울특별시 서대문구 증가로10길 94,120848,3662.0,126.926628534618,37.5803679501279
615,사조참치 서대문점,사조참치,서대문점,음식,일식/수산물,서울특별시,서대문구,충현동,충정로2가,서울특별시 서대문구 충정로2가 157,서울특별시 서대문구 통일로,서울특별시 서대문구 통일로 107-39,120707,3740.0,126.966104301464,37.5641952475034
616,김밥나라 ,김밥나라,,음식,분식,서울특별시,서대문구,북가좌2동,북가좌동,서울특별시 서대문구 북가좌동 294-16,서울특별시 서대문구 응암로,서울특별시 서대문구 응암로 90,120130,3682.0,126.912289664334,37.5807592906957
617,박가네 ,박가네,,음식,한식,서울특별시,서대문구,신촌동,대현동,서울특별시 서대문구 대현동 56-22,서울특별시 서대문구 이화여대5길,서울특별시 서대문구 이화여대5길 7-1,120808,3766.0,126.945360706812,37.5582541173303
618,청기와식당 ,청기와식당,,음식,한식,서울특별시,서대문구,충현동,북아현동,서울특별시 서대문구 북아현동 1-609,서울특별시 서대문구 북아현로,서울특별시 서대문구 북아현로 96-1,120866,3748.0,126.952825568639,37.5650963865151
619,인블러썸 ,인블러썸,,음식,분식,서울특별시,서대문구,신촌동,창천동,서울특별시 서대문구 창천동 9-20,서울특별시 서대문구 연세로,서울특별시 서대문구 연세로 20,120833,3776.0,126.937086494861,37.557495125223
620,굴레방아현황소곱창구이 ,굴레방아현황소곱창구이,,음식,한식,서울특별시,서대문구,북아현동,북아현동,서울특별시 서대문구 북아현동 221-7,서울특별시 서대문구 신촌로,서울특별시 서대문구 신촌로 231,120822,3774.0,126.95157486093,37.5574174332628
621,장대포정육점 ,장대포정육점,,음식,한식,서울특별시,서대문구,연희동,연희동,서울특별시 서대문구 연희동 191-2,서울특별시 서대문구 연희로11가길,서울특별시 서대문구 연희로11가길 50,120825,3707.0,126.927404229647,37.5665440889407
622,두남자차돌떡볶이 ,두남자차돌떡볶이,,음식,분식,서울특별시,서대문구,천연동,천연동,서울특별시 서대문구 천연동 120-35,서울특별시 서대문구 독립문로8길,서울특별시 서대문구 독립문로8길 69,120040,3745.0,126.95910926998,37.5674315878795
623,작은부엌앤 ,작은부엌앤,,음식,패스트푸드,서울특별시,서대문구,홍은2동,홍은동,서울특별시 서대문구 홍은동 274-20,서울특별시 서대문구 연희로,서울특별시 서대문구 연희로 267,120847,3658.0,126.935892707191,37.5809473988017
624,위드미 이화연대점,위드미,이화연대점,음식,한식,서울특별시,서대문구,신촌동,대신동,서울특별시 서대문구 대신동 115,서울특별시 서대문구 성산로,서울특별시 서대문구 성산로 565,120160,3721.0,126.946321109963,37.5664080915476
625,황가네민물매운탕 ,황가네민물매운탕,,음식,일식/수산물,서울특별시,서대문구,홍은1동,홍은동,서울특별시 서대문구 홍은동 48-125,서울특별시 서대문구 세검정로1길,서울특별시 서대문구 세검정로1길 31,120100,3615.0,126.943345457415,37.5927458359475
626,옐로우보울 ,옐로우보울,,음식,양식,서울특별시,서대문구,충현동,충정로3가,서울특별시 서대문구 충정로3가 476,서울특별시 서대문구 충정로,서울특별시 서대문구 충정로 7,120716,3737.0,126.962289085669,37.5601611521776
627,입장 ,입장,,음식,유흥주점,서울특별시,서대문구,충현동,충정로3가,서울특별시 서대문구 충정로3가 150-1,서울특별시 서대문구 충정로5길,서울특별시 서대문구 충정로5길 11,120838,3737.0,126.963455759925,37.5625501495488
628,신촌부대찌개 ,신촌부대찌개,,음식,한식,서울특별시,서대문구,신촌동,창천동,서울특별시 서대문구 창천동 30-9,서울특별시 서대문구 연세로,서울특별시 서대문구 연세로 3-5,120834,3789.0,126.936453045722,37.5558765594168
629,딱한잔더호프 ,딱한잔더호프,,음식,유흥주점,서울특별시,서대문구,북가좌2동,북가좌동,서울특별시 서대문구 북가좌동 324-27,서울특별시 서대문구 증가로31길,서울특별시 서대문구 증가로31길 45,120130,3678.0,126.909848103124,37.5820432661842
630,한솥 가재울뉴타운점,한솥,가재울뉴타운점,음식,패스트푸드,서울특별시,서대문구,북가좌1동,북가좌동,서울특별시 서대문구 북가좌동 481,서울특별시 서대문구 수색로,서울특별시 서대문구 수색로 100,120725,3709.0,126.907804499286,37.5746809440599
631,떼뮤즐렛 ,떼뮤즐렛,,음식,양식,서울특별시,서대문구,연희동,연희동,서울특별시 서대문구 연희동 188-71,서울특별시 서대문구 연희맛로,서울특별시 서대문구 연희맛로 24,120825,3708.0,126.930342805714,37.5668590832836
632,본월드에프앤비 ,본월드에프앤비,,음식,한식,서울특별시,서대문구,신촌동,창천동,서울특별시 서대문구 창천동 5-36,서울특별시 서대문구 명물길,서울특별시 서대문구 명물길 52,120833,3777.0,126.939277294144,37.5586411280948
633,구월산 ,구월산,,음식,한식,서울특별시,서대문구,홍제1동,홍제동,서울특별시 서대문구 홍제동 155-5,서울특별시 서대문구 모래내로,서울특별시 서대문구 모래내로 466,120090,3729.0,126.946411038728,37.5857361524004
634,이대종합분식 ,이대종합분식,,음식,분식,서울특별시,서대문구,신촌동,대현동,서울특별시 서대문구 대현동 101-12,서울특별시 서대문구 이화여대1길,서울특별시 서대문구 이화여대1길 46,120809,3766.0,126.943076616917,37.5572966101351
635,이자카야류 1호점,이자카야류,1호점,음식,유흥주점,서울특별시,서대문구,신촌동,창천동,서울특별시 서대문구 창천동 53-79,서울특별시 서대문구 연세로11길,서울특별시 서대문구 연세로11길 35,120834,3787.0,126.934815100267,37.5588352239511
636,청안식탁 ,청안식탁,,음식,한식,서울특별시,서대문구,충현동,충정로3가,서울특별시 서대문구 충정로3가 282-2,서울특별시 서대문구 충정로4길,서울특별시 서대문구 충정로4길 21,120840,3741.0,126.964265734841,37.5604578323002
637,돈돈뿔살 ,돈돈뿔살,,음식,한식,서울특별시,서대문구,북아현동,북아현동,서울특별시 서대문구 북아현동 220-14,서울특별시 서대문구 신촌로,서울특별시 서대문구 신촌로 235,120822,3774.0,126.952129256686,37.5574313654574
638,일품92하우스 ,일품92하우스,,음식,한식,서울특별시,서대문구,신촌동,창천동,서울특별시 서대문구 창천동 72-36,서울특별시 서대문구 신촌로,서울특별시 서대문구 신촌로 57,120834,3787.0,126.932920003737,37.5567997825977
639,한솥도시락명지대앞점 명지대앞점,한솥도시락명지대앞점,명지대앞점,음식,패스트푸드,서울특별시,서대문구,남가좌2동,남가좌동,서울특별시 서대문구 남가좌동 324-20,서울특별시 서대문구 거북골로,서울특별시 서대문구 거북골로 27,120120,3665.0,126.924486000883,37.5797717851971
640,훗닭훗닭장작구이연희점 연희점,훗닭훗닭장작구이연희점,연희점,음식,유흥주점,서울특별시,서대문구,연희동,연희동,서울특별시 서대문구 연희동 719-4,서울특별시 서대문구 홍제천로,서울특별시 서대문구 홍제천로 160,120827,3696.0,126.931065453601,37.5772816178763
641,칭따오 ,칭따오,,음식,중식,서울특별시,서대문구,홍제3동,홍제동,서울특별시 서대문구 홍제동 253-16,서울특별시 서대문구 통일로,서울특별시 서대문구 통일로 442-11,120090,3629.0,126.945211287845,37.5889151042906
642,1번지포차 ,1번지포차,,음식,유흥주점,서울특별시,서대문구,남가좌2동,남가좌동,서울특별시 서대문구 남가좌동 342-2,서울특별시 서대문구 증가로10길,서울특별시 서대문구 증가로10길 36-4,120807,3665.0,126.924174312491,37.5786156193662
643,족삼리 ,족삼리,,음식,한식,서울특별시,서대문구,홍제2동,홍제동,서울특별시 서대문구 홍제동 115-5,서울특별시 서대문구 통일로,서울특별시 서대문구 통일로 396-5,120854,3632.0,126.948374269006,37.5854202766987
644,놀부부대찌개&철판구이서대문홍제점 서대문홍제점,놀부부대찌개&철판구이서대문홍제점,서대문홍제점,음식,한식,서울특별시,서대문구,홍제1동,홍제동,서울특별시 서대문구 홍제동 469,서울특별시 서대문구 통일로,서울특별시 서대문구 통일로 397,120855,3730.0,126.947380558663,37.5852312117832
645,육대장 연희동점,육대장,연희동점,음식,한식,서울특별시,서대문구,연희동,연희동,서울특별시 서대문구 연희동 137-15,서울특별시 서대문구 연희맛로,서울특별시 서대문구 연희맛로 32,120825,3708.0,126.930774811484,37.5675207544
646,제이에스제이 ,제이에스제이,,음식,한식,서울특별시,서대문구,홍은2동,홍은동,서울특별시 서대문구 홍은동 356-1,서울특별시 서대문구 가좌로,서울특별시 서대문구 가좌로 134,120776,3656.0,126.925673709481,37.585360008539
647,쉐프수 ,쉐프수,,음식,양식,서울특별시,서대문구,연희동,연희동,서울특별시 서대문구 연희동 188-89,서울특별시 서대문구 연희맛로,서울특별시 서대문구 연희맛로 12,120825,3708.0,126.929300408152,37.5661378139005
648,밥한술술한모금 ,밥한술술한모금,,음식,한식,서울특별시,서대문구,연희동,연희동,서울특별시 서대문구 연희동 79-11,서울특별시 서대문구 연희로,서울특별시 서대문구 연희로 180,120829,3723.0,126.935713026143,37.5728905103174
649,로프트 ,로프트,,음식,양식,서울특별시,서대문구,신촌동,대신동,서울특별시 서대문구 대신동 50-3,서울특별시 서대문구 연대동문길,서울특별시 서대문구 연대동문길 18,120160,3721.0,126.943557224958,37.563337878307
650,별별식당 ,별별식당,,음식,한식,서울특별시,서대문구,남가좌1동,남가좌동,서울특별시 서대문구 남가좌동 152-43,서울특별시 서대문구 수색로2길,서울특별시 서대문구 수색로2길 40,120802,3712.0,126.916332522345,37.5705336820823
651,맨인드림 ,맨인드림,,음식,한식,서울특별시,서대문구,신촌동,창천동,서울특별시 서대문구 창천동 112-12,서울특별시 서대문구 신촌로,서울특별시 서대문구 신촌로 51,120835,3786.0,126.932260940735,37.5569830423763
652,마라하오 신촌점,마라하오,신촌점,음식,중식,서울특별시,서대문구,신촌동,창천동,서울특별시 서대문구 창천동 52-18,서울특별시 서대문구 연세로9길,서울특별시 서대문구 연세로9길 10-7,120834,3788.0,126.936161558643,37.5588653850785
